{"type":"FeatureCollection","features":[{"type":"Feature","properties":{"name":"ASIA Nudel WOK","cat":"imbiss","cuisine":"asian","website":"https://asianudelwok.de/","phone":"+49 4642 9646097","adresse":"Poststraße 11","ort":"Kappeln","zeiten":"Mo-Su 11:00-21:00"},"geometry":{"type":"Point","coordinates":[9.932925,54.661015]}},{"type":"Feature","properties":{"name":"Abraham's Pizzahaus","cat":"imbiss","cuisine":"pizza","adresse":"Hauptstraße 6","ort":"Fleckeby"},"geometry":{"type":"Point","coordinates":[9.699819,54.482673]}},{"type":"Feature","properties":{"name":"Akropolis","cat":"restaurant","cuisine":"greek","website":"https://www.akropolis-schleswig.de/","phone":"+49 4621 36137","adresse":"Friedrichstraße 114","ort":"Schleswig","zeiten":"Mo-Sa 16:00-23:00, Su,PH 11:00-14:30,16:00-23:00"},"geometry":{"type":"Point","coordinates":[9.546932,54.500035]}},{"type":"Feature","properties":{"name":"Alte Apotheke","cat":"cafe","cuisine":"bagel · cake · coffee shop","website":"https://www.alteapothekeschleswig.de/","phone":"+49 4621 200396","adresse":"Rathausmarkt 14","ort":"Schleswig","zeiten":"Mo-Su 09:00-18:00"},"geometry":{"type":"Point","coordinates":[9.570803,54.513595]}},{"type":"Feature","properties":{"name":"Alte Räucherei","cat":"restaurant","cuisine":"fish · german","phone":"+49 4642 5095","adresse":"Am Hafen 16","ort":"Kappeln","zeiten":"Apr-Sep: Mo-Su 10:00-22:00; Oct-Dec,Mar: We-Su 12:00-20:30; Mo,Tu off; Jan-Feb: off"},"geometry":{"type":"Point","coordinates":[9.934317,54.661599]}},{"type":"Feature","properties":{"name":"Alte Schmiede","cat":"restaurant","website":"https://alte-schmiede-kappeln.de/","phone":"+49 4642 1568","adresse":"Schmiedestraße 41","ort":"Kappeln","zeiten":"Th-Tu 09:00-17:30; We off"},"geometry":{"type":"Point","coordinates":[9.928852,54.662485]}},{"type":"Feature","properties":{"name":"Alter Kreisbahnhof","cat":"schlafen","website":"https://www.hotel-alter-kreisbahnhof.de/","phone":"+49 4621 30200","adresse":"Königstraße 9","ort":"Schleswig"},"geometry":{"type":"Point","coordinates":[9.566432,54.514785]}},{"type":"Feature","properties":{"name":"Altes Fährhaus","cat":"restaurant","cuisine":"regional","website":"https://www.altes-faehrhaus-fahrdorf.de/","phone":"+49 4621 3929751","adresse":"Dorfstraße 47","ort":"Fahrdorf","zeiten":"Fr-Tu 11:30-14:00,17:30-21:30; We,Th off"},"geometry":{"type":"Point","coordinates":[9.592899,54.504475]}},{"type":"Feature","properties":{"name":"Altes Ratscafé","cat":"cafe","website":"https://altesratscafe.jimdo.com","phone":"+49 4621 26260","adresse":"Rathausmarkt 3","ort":"Schleswig"},"geometry":{"type":"Point","coordinates":[9.571833,54.514007]}},{"type":"Feature","properties":{"name":"Am Schleieck","cat":"restaurant","cuisine":"fish","website":"https://www.schleieck-maasholm.de/","phone":"+49 4642 6016","adresse":"Schmiedestraße 140","ort":"Maasholm","zeiten":"Mo,We off; Tu,Th-Sa 17:00-22:00; Su,PH 14:00-22:00"},"geometry":{"type":"Point","coordinates":[9.990895,54.686311]}},{"type":"Feature","properties":{"name":"Am Schleieck","cat":"schlafen","website":"https://www.schleieck-maasholm.de/","phone":"+49 4642 6016","adresse":"Schmiedestraße 140","ort":"Maasholm"},"geometry":{"type":"Point","coordinates":[9.990887,54.686183]}},{"type":"Feature","properties":{"name":"Anatolien","cat":"imbiss","cuisine":"kebab","adresse":"Friedrichstraße 1","ort":"Schleswig","zeiten":"Mo-Su 10:00-24:00"},"geometry":{"type":"Point","coordinates":[9.541389,54.505766]}},{"type":"Feature","properties":{"name":"Anatolien","cat":"imbiss","cuisine":"kebab","phone":"+49 4621 984363","adresse":"Flensburger Straße 80","ort":"Schleswig","zeiten":"Mo-Su 10:00-24:00"},"geometry":{"type":"Point","coordinates":[9.544202,54.522981]}},{"type":"Feature","properties":{"name":"Apollonia","cat":"restaurant","cuisine":"greek","adresse":"Schleistraße 3","ort":"Boren","zeiten":"off \"geschlossen\""},"geometry":{"type":"Point","coordinates":[9.818107,54.585835]}},{"type":"Feature","properties":{"name":"Arnisser Segel-Club","cat":"hafen","website":"https://www.arnissersegelclub.de/","phone":"+49 4642 5404"},"geometry":{"type":"Point","coordinates":[9.93622,54.656543]}},{"type":"Feature","properties":{"name":"Artemis","cat":"restaurant","cuisine":"greek","website":"https://artemis-schleswig.de/","phone":"+49 4621 9522323","adresse":"Gottorfstraße 7","ort":"Schleswig","zeiten":"Mo,Tu,Th,Su 11:30-14:00,17:00-21:00; Fr,Sa 11:30-14:00,17:00-22:00; We off"},"geometry":{"type":"Point","coordinates":[9.54254,54.509118]}},{"type":"Feature","properties":{"name":"Asia Fu Loc","cat":"imbiss","cuisine":"asian","adresse":"Königstraße 24","ort":"Schleswig","zeiten":"Mo-Sa 10:30-20:00; PH,Su off"},"geometry":{"type":"Point","coordinates":[9.561613,54.515018]}},{"type":"Feature","properties":{"name":"Asia Wok","cat":"restaurant","cuisine":"japanese · sushi · asian","zeiten":"Mo-Fr 11:00-15:00,16:00-20:00; PH,Sa,Su 16:00-20:00"},"geometry":{"type":"Point","coordinates":[9.561867,54.516403]}},{"type":"Feature","properties":{"name":"Aurora","cat":"schlafen","website":"https://www.aurora-kappeln.de/","phone":"+49 4642 4088","adresse":"Rathausmarkt 6","ort":"Kappeln","zeiten":"Mo-Su 07:00-21:00"},"geometry":{"type":"Point","coordinates":[9.932953,54.661839]}},{"type":"Feature","properties":{"name":"Aurora","cat":"restaurant","cuisine":"steak house","website":"https://www.aurora-kappeln.de/","phone":"+49 4642 4088","adresse":"Rathausmarkt 6","ort":"Kappeln","zeiten":"Tu-Su 07:00-22:00; Mo off"},"geometry":{"type":"Point","coordinates":[9.932858,54.661716]}},{"type":"Feature","properties":{"name":"Auszeit","cat":"restaurant","website":"https://arnis.de/auszeit/","phone":"+49 172 3551322","adresse":"Lange Straße 9","ort":"Arnis","zeiten":"Mo-Tu,Th-Su 17:00-21:30"},"geometry":{"type":"Point","coordinates":[9.931372,54.629967]}},{"type":"Feature","properties":{"name":"Baba Arabic BBQ","cat":"imbiss"},"geometry":{"type":"Point","coordinates":[9.576866,54.532013]}},{"type":"Feature","properties":{"name":"Backstübchen Brix","cat":"cafe","phone":"+49 4642 2151","adresse":"Mühlenstraße 15","ort":"Kappeln","zeiten":"Mo-Su 05:30-18:00+"},"geometry":{"type":"Point","coordinates":[9.931654,54.660454]}},{"type":"Feature","properties":{"name":"Bar & Café 26","cat":"imbiss","website":"https://schleswig-bar26.de/","zeiten":"Su 14:00-18:00; Fr,Sa 14:00-02:00"},"geometry":{"type":"Point","coordinates":[9.549895,54.50788]}},{"type":"Feature","properties":{"name":"Beachclub","cat":"imbiss"},"geometry":{"type":"Point","coordinates":[10.014028,54.660293]}},{"type":"Feature","properties":{"name":"Bed & Breakfast am Dom","cat":"schlafen","website":"https://www.bb-schleswig.de/","phone":"+49 4621 485991","adresse":"Töpferstraße 9","ort":"Schleswig"},"geometry":{"type":"Point","coordinates":[9.572159,54.513642]}},{"type":"Feature","properties":{"name":"Bellavita","cat":"restaurant","cuisine":"italian","phone":"+49 4642 9279959","adresse":"Am Hafen 19","ort":"Kappeln","zeiten":"Tu-Su 11:30-21:30; Mo off"},"geometry":{"type":"Point","coordinates":[9.934608,54.661891]}},{"type":"Feature","properties":{"name":"Berlin Döner","cat":"imbiss","cuisine":"kebab","adresse":"Stadtweg 63","ort":"Schleswig"},"geometry":{"type":"Point","coordinates":[9.558685,54.51562]}},{"type":"Feature","properties":{"name":"Big Bird Farm","cat":"cafe","website":"https://big-bird.de/","adresse":"Bundesstraße 7"},"geometry":{"type":"Point","coordinates":[9.627554,54.491971]}},{"type":"Feature","properties":{"name":"Bistro Haithabu","cat":"imbiss","zeiten":"Sa 12:00-15:00,18:00-20:00; Su 12:00-16:00"},"geometry":{"type":"Point","coordinates":[9.570676,54.501174]}},{"type":"Feature","properties":{"name":"Bistro Südspeicher","cat":"restaurant","website":"https://www.suedspeicher.de/bistro","phone":"+49 4642 9999410","adresse":"Bahnhofsweg 7","ort":"Kappeln","zeiten":"Mo-Fr 07:30-22:00; Sa 08:00-22:00; Su,PH 08:00-17:00"},"geometry":{"type":"Point","coordinates":[9.934186,54.658497]}},{"type":"Feature","properties":{"name":"Bude","cat":"imbiss"},"geometry":{"type":"Point","coordinates":[9.932743,54.66115]}},{"type":"Feature","properties":{"name":"Burger King","cat":"imbiss","cuisine":"burger","adresse":"Wittgenstein 9","ort":"Busdorf"},"geometry":{"type":"Point","coordinates":[9.5453,54.477908]}},{"type":"Feature","properties":{"name":"Burger Manufaktur","cat":"restaurant","website":"http://www.alte-eule.de/","phone":"+49 4642 82575","adresse":"Hüholz 5","ort":"Kappeln","zeiten":"Fr,Sa 17:00-22:00"},"geometry":{"type":"Point","coordinates":[9.919382,54.653203]}},{"type":"Feature","properties":{"name":"Burgermeisterin","cat":"imbiss","cuisine":"burger · fries","phone":"+49 1512 2700370","adresse":"Am Hafen 1","ort":"Schleswig","zeiten":"Mo-Su 12:00-19:00"},"geometry":{"type":"Point","coordinates":[9.571551,54.511441]}},{"type":"Feature","properties":{"name":"Café Friedrich","cat":"cafe","zeiten":"Tu-Su 10:30-16:30"},"geometry":{"type":"Point","coordinates":[9.541859,54.505658]}},{"type":"Feature","properties":{"name":"Café Kö","cat":"cafe","phone":"+49 4621 305355","adresse":"Königstraße 13","ort":"Schleswig","zeiten":"Mo-Fr 07:00-18:00; Sa 07:00-16:00; Su 08:00-17:00"},"geometry":{"type":"Point","coordinates":[9.565523,54.514766]}},{"type":"Feature","properties":{"name":"Café Lindauhof","cat":"cafe","website":"http://www.cafelindauhof.de/","phone":"+49 4641 3710","adresse":"Lindauhof 4","ort":"Boren","zeiten":"Mar-Oct: Tu-Fr 11:00-19:00; Sa,Su,PH 09:00-19:00; Mo off; Nov,Dec: Sa,Su,PH 09:00-19:00; Jan,Feb: off"},"geometry":{"type":"Point","coordinates":[9.802528,54.588347]}},{"type":"Feature","properties":{"name":"Cameo","cat":"restaurant","cuisine":"seafood · pizza","website":"https://www.cameo-kappeln.de/","phone":"+49 4642 96415","zeiten":"Mo-Th 11:30-22:00; Fr, Sa 11:30-23:00; Su 11:30-21:00"},"geometry":{"type":"Point","coordinates":[9.933848,54.660423]}},{"type":"Feature","properties":{"name":"Camping Lindaunis","cat":"camping","website":"https://camping-lindaunis.de/","phone":"+49 4641 7317","adresse":"Schleistraße 1","ort":"Boren","zeiten":"Apr 01-Oct 15: 07:30-13:00,15:00-22:00"},"geometry":{"type":"Point","coordinates":[9.814769,54.586928]}},{"type":"Feature","properties":{"name":"Campingpark Schlei-Karschau","cat":"camping","website":"https://www.campingpark-schlei.de/","phone":"+49 4642 920820","adresse":"Karschau 56","ort":"Rabenkirchen-Faulück"},"geometry":{"type":"Point","coordinates":[9.881628,54.620212]}},{"type":"Feature","properties":{"name":"Campingplatz Haithabu","cat":"camping","website":"http://campingplatz-haithabu.de/","phone":"+49 4621 32450","adresse":"Haddebyer Chaussee 15","ort":"Busdorf"},"geometry":{"type":"Point","coordinates":[9.571783,54.501367]}},{"type":"Feature","properties":{"name":"Campingplatz Schleimünde","cat":"camping","website":"https://www.campingplatz-schleimuende.de/","phone":"+49 4642 81647","adresse":"Olpenitzer Dorfstraße 33a","ort":"Kappeln","zeiten":"Apr 01-Oct 15"},"geometry":{"type":"Point","coordinates":[10.006915,54.664533]}},{"type":"Feature","properties":{"name":"Campingplatz Wassermühlenholz","cat":"camping","website":"https://www.goosbusters.de/campingplatz/","phone":"+49 4642 924077","adresse":"Wassermühlenholz 3","ort":"Kappeln"},"geometry":{"type":"Point","coordinates":[9.926881,54.673197]}},{"type":"Feature","properties":{"name":"Campingplatz Wees","cat":"camping","website":"https://www.camping-schlei.de/","phone":"+49 4354 98430","adresse":"An de Wees 16","ort":"Kosel"},"geometry":{"type":"Point","coordinates":[9.72347,54.524]}},{"type":"Feature","properties":{"name":"Cheers","cat":"imbiss","adresse":"Mühlenstraße 39","ort":"Kappeln","zeiten":"Mo-Th 17:00+; Fr-Su 16:00+"},"geometry":{"type":"Point","coordinates":[9.929149,54.660695]}},{"type":"Feature","properties":{"name":"Cheers II","cat":"imbiss","adresse":"Michaelisstraße 42","ort":"Schleswig"},"geometry":{"type":"Point","coordinates":[9.566005,54.519423]}},{"type":"Feature","properties":{"name":"Ciao Bella Port Olpenitz","cat":"restaurant","cuisine":"italian","website":"https://www.ciao-bella.de","phone":"+49 4642 9212237","adresse":"Hafenpromenade 4","ort":"Kappeln","zeiten":"Mo-Fr 16:30-21:30; Sa,Su 12:00-22:00"},"geometry":{"type":"Point","coordinates":[10.016495,54.659267]}},{"type":"Feature","properties":{"name":"Clubheim Dat Leck","cat":"restaurant","adresse":"Luisenbad 4","ort":"Schleswig","zeiten":"Mo 11:00-13:00,15:00-19:00; We,Fr,Su 15:00-19:00"},"geometry":{"type":"Point","coordinates":[9.557129,54.512017]}},{"type":"Feature","properties":{"name":"Coffea","cat":"cafe","phone":"+49 163 8802680","adresse":"Mönchenbrückstraße 10","ort":"Schleswig","zeiten":"Mo-Fr 09:30-17:00; Sa 10:00-15:00; PH,Su off"},"geometry":{"type":"Point","coordinates":[9.567965,54.517461]}},{"type":"Feature","properties":{"name":"Crêpes Schmiede","cat":"imbiss","cuisine":"crepe","adresse":"Schmiedestraße 3","ort":"Kappeln"},"geometry":{"type":"Point","coordinates":[9.932032,54.662014]}},{"type":"Feature","properties":{"name":"Cubar","cat":"imbiss"},"geometry":{"type":"Point","coordinates":[9.556056,54.521153]}},{"type":"Feature","properties":{"name":"DJH Jugendherberge Borgwedel","cat":"schlafen","website":"https://www.jugendherberge.de/jugendherbergen/borgwedel/","phone":"+49 4354 219","adresse":"Kreisstraße 17","ort":"Borgwedel"},"geometry":{"type":"Point","coordinates":[9.671406,54.497051]}},{"type":"Feature","properties":{"name":"DJH Jugendherberge Kappeln","cat":"schlafen","website":"https://kappeln.jugendherberge.de","phone":"+49 4642 8550","adresse":"Eckernförder Straße 2","ort":"Kappeln"},"geometry":{"type":"Point","coordinates":[9.942149,54.65713]}},{"type":"Feature","properties":{"name":"Da Marcello","cat":"restaurant","cuisine":"italian","website":"https://www.da-marcello-schleswig.com","phone":"+49 4621 483754","adresse":"Am Lornsenpark 31","ort":"Schleswig","zeiten":"Mo-Su 11:30-14:30, 17:30-22:00"},"geometry":{"type":"Point","coordinates":[9.567778,54.516831]}},{"type":"Feature","properties":{"name":"Das Kuchenhaus","cat":"cafe","cuisine":"cake · coffee shop","website":"https://www.das-kuchenhaus.de/","phone":"+49 4622 9569088","adresse":"Missunder Fährstraße 24","ort":"Brodersby","zeiten":"Apr-Aug: Mo-Su 12:00-18:00; Sep-Oct: Mo-Su 13:00-17:00; Nov-Feb: Su 14:00-17:00; Mar: Th-Mo 13:00-17:00"},"geometry":{"type":"Point","coordinates":[9.711509,54.531128]}},{"type":"Feature","properties":{"name":"Das große Schlosscafé","cat":"cafe","phone":"+49 172 9740026","adresse":"Schlossinsel 1","ort":"Schleswig","zeiten":"Th-Su 10:00-17:00"},"geometry":{"type":"Point","coordinates":[9.542163,54.511625]}},{"type":"Feature","properties":{"name":"Das kleine Schlosscafé","cat":"cafe"},"geometry":{"type":"Point","coordinates":[9.539495,54.511231]}},{"type":"Feature","properties":{"name":"De Imbiss-Stuv","cat":"imbiss","cuisine":"german · burger · sausage · fries","website":"https://www.deimbiss-stuv.de/","phone":"+49 4642 6969780","adresse":"Querstraße 19","ort":"Kappeln","zeiten":"Tu-Su 11:30-20:00"},"geometry":{"type":"Point","coordinates":[9.930793,54.661301]}},{"type":"Feature","properties":{"name":"Der Arnisser","cat":"cafe","cuisine":"cake","website":"https://derarnisser.de/","phone":"+49 4642 9279857","adresse":"Lange Straße 85","ort":"Arnis","zeiten":"Jan-Feb: off; Mar-Dec: We-Su 13:00-17:30"},"geometry":{"type":"Point","coordinates":[9.931677,54.630512]}},{"type":"Feature","properties":{"name":"Der kleine Eisladen","cat":"cafe","cuisine":"Eis"},"geometry":{"type":"Point","coordinates":[9.992959,54.682476]}},{"type":"Feature","properties":{"name":"Deutscher Hof","cat":"schlafen","website":"http://www.hotel-deutscherhof.de","phone":"+49 4621 25836","adresse":"Domziegelhof 14","ort":"Schleswig"},"geometry":{"type":"Point","coordinates":[9.555672,54.514431]}},{"type":"Feature","properties":{"name":"Die Insel","cat":"imbiss","adresse":"Marktstraße 5","ort":"Kappeln","zeiten":"Th-Su 18:00-22:00+"},"geometry":{"type":"Point","coordinates":[9.929173,54.661908]}},{"type":"Feature","properties":{"name":"Dom-Café","cat":"cafe","website":"https://domcafe-schleswig.jimdofree.com","phone":"+49 4621 26260","adresse":"Süderdomstraße 21","ort":"Schleswig","zeiten":"Su 13:00+"},"geometry":{"type":"Point","coordinates":[9.56747,54.512937]}},{"type":"Feature","properties":{"name":"Domhotel","cat":"schlafen","website":"http://www.domhotel-schleswig.de","phone":"+49 4621 977767","adresse":"Domziegelhof 6","ort":"Schleswig"},"geometry":{"type":"Point","coordinates":[9.556359,54.514493]}},{"type":"Feature","properties":{"name":"Domino's","cat":"imbiss","cuisine":"pizza","website":"https://www.dominos.de","phone":"+49 4621 200028","adresse":"Stadtfeld 2","ort":"Schleswig","zeiten":"Mo-Su 11:00-22:00"},"geometry":{"type":"Point","coordinates":[9.564132,54.521319]}},{"type":"Feature","properties":{"name":"Don Stiven","cat":"imbiss","cuisine":"pizza","phone":"+49 4621 8557428","adresse":"Michaelisstraße 11","ort":"Schleswig","zeiten":"Mo,We-Sa 11:30-14:30,17:30-22:30; Su 17:00-22:30; Tu off"},"geometry":{"type":"Point","coordinates":[9.566663,54.518048]}},{"type":"Feature","properties":{"name":"Dorf-Café Rabel","cat":"cafe","phone":"+49 4642 6339","adresse":"Schulstraße 18","ort":"Rabel","zeiten":"Apr-Oct: Th-Tu 14:00-18:00; Nov-Mar: \"auf Anfrage\""},"geometry":{"type":"Point","coordinates":[9.947866,54.693025]}},{"type":"Feature","properties":{"name":"Dynastie","cat":"restaurant","cuisine":"chinese","phone":"+49 4621 20288","adresse":"Lollfuß 114","ort":"Schleswig","zeiten":"We-Sa 17:30-21:00; Su 12:00-14:00,17:30-21:00"},"geometry":{"type":"Point","coordinates":[9.546791,54.511732]}},{"type":"Feature","properties":{"name":"East","cat":"restaurant","cuisine":"asian","website":"http://www.east-sl.de","phone":"+49 4621 3823718","adresse":"Wikingeck 2","ort":"Schleswig","zeiten":"Mo-Su 17:30-24:00+"},"geometry":{"type":"Point","coordinates":[9.548238,54.507752]}},{"type":"Feature","properties":{"name":"Edeka Bistro","cat":"imbiss","zeiten":"Mo-Sa 08:00-18:00"},"geometry":{"type":"Point","coordinates":[9.527415,54.52929]}},{"type":"Feature","properties":{"name":"Eis Veneto","cat":"cafe","cuisine":"ice cream","adresse":"Stadtweg 60","ort":"Schleswig","zeiten":"Mo-Sa 09:15-20:30; PH,Su 11:00-20:30"},"geometry":{"type":"Point","coordinates":[9.560779,54.516245]}},{"type":"Feature","properties":{"name":"Eiscafé Lemke","cat":"cafe","cuisine":"ice cream","adresse":"Kornmarkt 6","ort":"Schleswig","zeiten":"Apr-Sep: Mo-Sa 11:00-18:00; Apr-Sep: Su,PH 13:00-18:00"},"geometry":{"type":"Point","coordinates":[9.567518,54.517542]}},{"type":"Feature","properties":{"name":"Eishörnchen","cat":"cafe","adresse":"Am Hafen 9","ort":"Schleswig"},"geometry":{"type":"Point","coordinates":[9.569219,54.511523]}},{"type":"Feature","properties":{"name":"Erna's Café","cat":"cafe","zeiten":"Mo,Tu off; We-Sa 11:00-17:00; Su,PH 11:00-16:00"},"geometry":{"type":"Point","coordinates":[9.932524,54.660932]}},{"type":"Feature","properties":{"name":"Fahrdorfer Segler-Verein","cat":"hafen","website":"http://www.fsv-fahrdorf.com/","phone":"+49 4621 31889"},"geometry":{"type":"Point","coordinates":[9.585785,54.503431]}},{"type":"Feature","properties":{"name":"Ferienhof Bahr","cat":"schlafen","website":"https://www.bauernhof-bahr.de/","adresse":"Alte Landstraße 6"},"geometry":{"type":"Point","coordinates":[9.70646,54.542515]}},{"type":"Feature","properties":{"name":"Ferienhof-Wick","cat":"schlafen","website":"https://www.ferienhof-wick.de/","phone":"+49 4642 924245","adresse":"Weidefelder Weg 6","ort":"Kappeln"},"geometry":{"type":"Point","coordinates":[10.017644,54.648877]}},{"type":"Feature","properties":{"name":"Fiete's","cat":"imbiss","cuisine":"fish · friture","website":"https://www.foeh.de","phone":"+49 4642 2274","adresse":"Dehnthof 26","ort":"Kappeln","zeiten":"Mo-Fr 11:30-17:30; Sa 11:00-16:00"},"geometry":{"type":"Point","coordinates":[9.934081,54.662419]}},{"type":"Feature","properties":{"name":"Fischermanns Freund - Die Ferienhaus Agentur","cat":"schlafen","website":"https://www.ferienhaus-agentur.de/Fischermanns.Freund","adresse":"Kapitänsstraße 12","ort":"Kappeln"},"geometry":{"type":"Point","coordinates":[10.027312,54.659003]}},{"type":"Feature","properties":{"name":"Fischimbiss Missunde","cat":"imbiss","cuisine":"fish","website":"http://www.fischbude-missunde.de/","zeiten":"Fr-Su 12:00-19:30"},"geometry":{"type":"Point","coordinates":[9.714269,54.524973]}},{"type":"Feature","properties":{"name":"Fishbar","cat":"imbiss"},"geometry":{"type":"Point","coordinates":[9.932718,54.661377]}},{"type":"Feature","properties":{"name":"Foffthein","cat":"imbiss","adresse":"Querstraße 15","ort":"Kappeln","zeiten":"\"ständig wechselnd\""},"geometry":{"type":"Point","coordinates":[9.930766,54.661503]}},{"type":"Feature","properties":{"name":"Frisani Speisetechnik","cat":"cafe","adresse":"Königstraße 20","ort":"Schleswig"},"geometry":{"type":"Point","coordinates":[9.563105,54.514902]}},{"type":"Feature","properties":{"name":"Fährhaus Missunde","cat":"restaurant","cuisine":"regional","website":"https://www.faehrhaus-missunde.de/","phone":"+49 4622 626","adresse":"Missunder Fährstraße 33","ort":"Brodersby-Goltoft","zeiten":"off \"bis auf Weiteres geschlossen\""},"geometry":{"type":"Point","coordinates":[9.715269,54.524625]}},{"type":"Feature","properties":{"name":"Fährschänke","cat":"restaurant","cuisine":"seafood","website":"https://www.faehrschaenke.de/","phone":"+49 4642 3566","adresse":"Am Hafen 10","ort":"Kappeln","zeiten":"Mo-Su 10:30-23:00"},"geometry":{"type":"Point","coordinates":[9.934036,54.66065]}},{"type":"Feature","properties":{"name":"Gasthaus Nüser","cat":"schlafen","cuisine":"regional","phone":"+49 4644 220","adresse":"Eckernförder Straße 46","ort":"Karby","zeiten":"Mo-Su 08:00-14:00,17:30-22:00"},"geometry":{"type":"Point","coordinates":[9.974277,54.623089]}},{"type":"Feature","properties":{"name":"Gasthof Alt Sieseby","cat":"restaurant","cuisine":"german","website":"https://gasthof-alt-sieseby.de/das-restaurant-3/","phone":"+49 4352 9569933","adresse":"Dorfstraße 24","ort":"Thumby","zeiten":"We-Fr 17:00-22:00; Sa-Su 12:00-22:00"},"geometry":{"type":"Point","coordinates":[9.862963,54.593498]}},{"type":"Feature","properties":{"name":"Gasthof Petersen","cat":"imbiss","adresse":"Schleidörfer Straße 14","ort":"Schaalby"},"geometry":{"type":"Point","coordinates":[9.65165,54.534748]}},{"type":"Feature","properties":{"name":"Gazi's Bistro","cat":"imbiss","adresse":"Bernard-Liening-Straße 11","ort":"Kappeln","zeiten":"Mo-Sa 11:00-22:00; Su 14:00-22:00"},"geometry":{"type":"Point","coordinates":[9.949871,54.652896]}},{"type":"Feature","properties":{"name":"Geeler Kroog","cat":"cafe","zeiten":"off \"Vorübergehend geschlossen\""},"geometry":{"type":"Point","coordinates":[9.688506,54.533434]}},{"type":"Feature","properties":{"name":"Gelatomania","cat":"cafe","cuisine":"ice cream","zeiten":"Mo-Su 09:00-18:00"},"geometry":{"type":"Point","coordinates":[9.930608,54.662352]}},{"type":"Feature","properties":{"name":"Giovanni L.","cat":"cafe","cuisine":"ice cream","phone":"+49 4621 8555575","adresse":"Stadtweg 24","ort":"Schleswig","zeiten":"Mo-Sa 09:00-21:00; Su,PH 11:00-20:00"},"geometry":{"type":"Point","coordinates":[9.564532,54.51675]}},{"type":"Feature","properties":{"name":"Giovanni L.","cat":"cafe","cuisine":"ice cream"},"geometry":{"type":"Point","coordinates":[9.934516,54.661797]}},{"type":"Feature","properties":{"name":"Giovanni L.","cat":"cafe"},"geometry":{"type":"Point","coordinates":[10.016716,54.659238]}},{"type":"Feature","properties":{"name":"Gleis 9","cat":"restaurant","cuisine":"regional","website":"https://www.hotel-alter-kreisbahnhof.de/de/restaurant/","phone":"+49 4621 30200","zeiten":"Tu-Su 15:00-22:00"},"geometry":{"type":"Point","coordinates":[9.56654,54.514763]}},{"type":"Feature","properties":{"name":"Golfclub","cat":"restaurant"},"geometry":{"type":"Point","coordinates":[9.663034,54.488809]}},{"type":"Feature","properties":{"name":"Gonzo's Café und Biergarten","cat":"cafe","cuisine":"burger · fish","website":"https://www.schlei-marina-lindauhof.de/Cafe-und-Biergarten/","zeiten":"May-Oct: Fr-Mo 11:30-20:00"},"geometry":{"type":"Point","coordinates":[9.803389,54.587476]}},{"type":"Feature","properties":{"name":"Gosch's Gasthof","cat":"restaurant","cuisine":"regional","website":"https://goschs-gasthof.de/","phone":"+49 4621 9525024","adresse":"Friedrichstraße 86","ort":"Schleswig","zeiten":"Tu-Fr 17:00-22:00; Sa 11:30-14:00,17:00-22:00; Mo,Su,PH off"},"geometry":{"type":"Point","coordinates":[9.54489,54.501439]}},{"type":"Feature","properties":{"name":"Gästehaus Krog","cat":"schlafen","phone":"+49 4641 9890-0","adresse":"Ulsnis-Kirchenholz 13","ort":"Ulsnis"},"geometry":{"type":"Point","coordinates":[9.754879,54.575178]}},{"type":"Feature","properties":{"name":"Günther","cat":"cafe","adresse":"Am Hafen 13","ort":"Kappeln","zeiten":"Su 07:30-17:00; Mo-Fr 07:00-18:00; Sa 07:30-17:00"},"geometry":{"type":"Point","coordinates":[9.934267,54.661182]}},{"type":"Feature","properties":{"name":"Hafen Olpenitz","cat":"hafen","website":"https://hafenolpenitz.com/","phone":"+49 4642 9224218"},"geometry":{"type":"Point","coordinates":[10.01584,54.660633]}},{"type":"Feature","properties":{"name":"Hafencafé","cat":"cafe","website":"https://www.marina-huelsen.de/hafencafe","zeiten":"off"},"geometry":{"type":"Point","coordinates":[9.753872,54.547508]}},{"type":"Feature","properties":{"name":"Hafencafé Schleswig","cat":"cafe","website":"http://hafencafe-schleswig.de","phone":"+49 4621 9897666","adresse":"Am Hafen 11","ort":"Schleswig","zeiten":"Mo-Su 08:00-22:00"},"geometry":{"type":"Point","coordinates":[9.568788,54.511651]}},{"type":"Feature","properties":{"name":"Haithabu Café","cat":"cafe","website":"https://www.haithabu-cafe.de/","phone":"+49 4621 850500","adresse":"Am Haddebyer Noor 3","ort":"Busdorf","zeiten":"Mo-Su 09:00-17:00"},"geometry":{"type":"Point","coordinates":[9.569023,54.497024]}},{"type":"Feature","properties":{"name":"Happy Rancho","cat":"restaurant","cuisine":"steak house","website":"https://www.happyrancho.de/","phone":"+49 4621 24419","adresse":"Lange Straße 5","ort":"Schleswig","zeiten":"Tu-Fr 11:30-14:30,17:30-23:00; Sa-Su 11:30-14:30,17:30-22:00"},"geometry":{"type":"Point","coordinates":[9.570059,54.514699]}},{"type":"Feature","properties":{"name":"Haus am Dom","cat":"schlafen","website":"https://www.haus-am-dom-zu-schleswig.de/","phone":"+49 4621 9843 155","adresse":"Süderdomstraße 19","ort":"Schleswig"},"geometry":{"type":"Point","coordinates":[9.567651,54.512924]}},{"type":"Feature","properties":{"name":"Henningsen & Steckmest","cat":"hafen"},"geometry":{"type":"Point","coordinates":[9.938529,54.669745]}},{"type":"Feature","properties":{"name":"Holm Café","cat":"cafe","website":"http://www.holm-cafe.de/","phone":"+49 4621 20927","adresse":"Süderholmstraße 15","ort":"Schleswig","zeiten":"We-Su 13:00-17:30"},"geometry":{"type":"Point","coordinates":[9.574034,54.512702]}},{"type":"Feature","properties":{"name":"Hotel F-RITZ","cat":"schlafen","website":"https://www.hotel-f-ritz.de/","phone":"+49 4621 932280","adresse":"Friedrichstraße 102","ort":"Schleswig"},"geometry":{"type":"Point","coordinates":[9.546102,54.500489]}},{"type":"Feature","properties":{"name":"Hotel Gottorfer Hof","cat":"schlafen","website":"http://www.hotel-gottorferhof.de","adresse":"Gottorfstraße 7","ort":"Schleswig"},"geometry":{"type":"Point","coordinates":[9.542605,54.509088]}},{"type":"Feature","properties":{"name":"Hotel Hohenzollern","cat":"schlafen","website":"https://www.hotel-hohenzollern.de/","phone":"+49 4621 9060","adresse":"Moltkestraße 41","ort":"Schleswig"},"geometry":{"type":"Point","coordinates":[9.556351,54.521219]}},{"type":"Feature","properties":{"name":"Hotel Schleimünde","cat":"schlafen","cuisine":"regional","website":"https://www.hotel-schleimuende.de/","phone":"+49 4642 81647","adresse":"Olpenitzer Dorfstraße 29","ort":"Kappeln"},"geometry":{"type":"Point","coordinates":[10.006622,54.66324]}},{"type":"Feature","properties":{"name":"Hotel Stadt Kappeln","cat":"schlafen"},"geometry":{"type":"Point","coordinates":[9.928641,54.662332]}},{"type":"Feature","properties":{"name":"Hotel Südspeicher","cat":"schlafen","website":"https://www.suedspeicher.de/","phone":"+49 4642 9999410","adresse":"Bahnhofsweg 7","ort":"Kappeln"},"geometry":{"type":"Point","coordinates":[9.934049,54.658558]}},{"type":"Feature","properties":{"name":"Hotel an der Schlei","cat":"schlafen","website":"https://www.hotelanderschlei.de/","phone":"+49 4621 38000","adresse":"Dorfstraße 44","ort":"Fahrdorf"},"geometry":{"type":"Point","coordinates":[9.594419,54.504425]}},{"type":"Feature","properties":{"name":"Hotel zur Mühle","cat":"schlafen","website":"https://www.hotel-cafe-kappeln.de/","phone":"+49 4642 7333","adresse":"Mühlenstraße 60","ort":"Kappeln"},"geometry":{"type":"Point","coordinates":[9.928871,54.660465]}},{"type":"Feature","properties":{"name":"Ilias Bistro","cat":"imbiss","cuisine":"pizza · kebab","website":"https://www.ilias-bistro.de/","adresse":"Dorfstraße 71a","ort":"Fahrdorf"},"geometry":{"type":"Point","coordinates":[9.60006,54.505498]}},{"type":"Feature","properties":{"name":"Imbiss am Hafen","cat":"imbiss","cuisine":"fish and chips · fish · fast food","website":"https://www.petersen-maasholm.de/","adresse":"Uleweg 30c","ort":"Maasholm","zeiten":"Th-Su 12:00-18:00"},"geometry":{"type":"Point","coordinates":[9.993076,54.68254]}},{"type":"Feature","properties":{"name":"Janny's Eis","cat":"cafe"},"geometry":{"type":"Point","coordinates":[9.93391,54.660484]}},{"type":"Feature","properties":{"name":"Judi Café","cat":"restaurant","cuisine":"arab","adresse":"Plessenstraße 15"},"geometry":{"type":"Point","coordinates":[9.56611,54.516034]}},{"type":"Feature","properties":{"name":"Jugendherberge Maasholm - Umwelthaus","cat":"schlafen","website":"https://www.jugendherberge.de/jugendherbergen/maasholm-umwelthaus-640/portraet/","phone":"+49 4642 8550","adresse":"Seeberg 1","ort":"Maasholm"},"geometry":{"type":"Point","coordinates":[10.017064,54.696893]}},{"type":"Feature","properties":{"name":"Jugendzeltlager Selker Noor","cat":"camping","website":"https://www.selkernoor.de/"},"geometry":{"type":"Point","coordinates":[9.585655,54.480044]}},{"type":"Feature","properties":{"name":"Jutta's Fischpavillon","cat":"schlafen","cuisine":"seafood · french fries · fish · fries","zeiten":"Apr-Oct: We-Su 11:00-17:00"},"geometry":{"type":"Point","coordinates":[9.934468,54.659066]}},{"type":"Feature","properties":{"name":"Jägers Ruh","cat":"restaurant","cuisine":"german","website":"https://jägersruh.de/","phone":"+49 4641 4849170","adresse":"Kastanienallee 7","ort":"Steinfeld","zeiten":"Tu,We,Fr,Sa 17:00-21:00; Su 11:30-14:00,17:00-21:00; Mo,Th off"},"geometry":{"type":"Point","coordinates":[9.747506,54.598337]}},{"type":"Feature","properties":{"name":"Kaphörnchen","cat":"restaurant","cuisine":"mexican","website":"https://www.kaphoernchen-schleswig.de/","phone":"+49 4621 5302084","adresse":"Am Hafen 9","ort":"Schleswig","zeiten":"Mo-Su,PH 10:00-21:00"},"geometry":{"type":"Point","coordinates":[9.569515,54.511543]}},{"type":"Feature","properties":{"name":"Kaphörnchen","cat":"cafe","zeiten":"Mo-Su,PH 10:00-20:00"},"geometry":{"type":"Point","coordinates":[9.56966,54.511513]}},{"type":"Feature","properties":{"name":"Kappelner Hof","cat":"schlafen","website":"https://www.kappelner-hof.de/","phone":"+49 4642 4866","adresse":"Wassermühlenstraße 1","ort":"Kappeln"},"geometry":{"type":"Point","coordinates":[9.931469,54.663044]}},{"type":"Feature","properties":{"name":"Kebab Lounge","cat":"imbiss","cuisine":"kebab","phone":"+49 4621 9373003","adresse":"Am Brautsee 24-26","ort":"Schleswig","zeiten":"Su-Th 11:00-23:00; Fr,Sa 11:00-24:00"},"geometry":{"type":"Point","coordinates":[9.574058,54.521572]}},{"type":"Feature","properties":{"name":"Kiek In","cat":"imbiss","adresse":"Gallberg 23","ort":"Schleswig"},"geometry":{"type":"Point","coordinates":[9.569847,54.517984]}},{"type":"Feature","properties":{"name":"Klöndeel","cat":"schlafen","website":"https://kloendeel.de/"},"geometry":{"type":"Point","coordinates":[9.584431,54.493686]}},{"type":"Feature","properties":{"name":"Knaack Bäckerei & Café","cat":"cafe","zeiten":"Mo-Sa 08:00-20:00; Su,PH off"},"geometry":{"type":"Point","coordinates":[9.929366,54.667033]}},{"type":"Feature","properties":{"name":"Kochlöffel","cat":"imbiss","cuisine":"burger","website":"https://www.kochloeffel.de/","phone":"+49 4621 22554","adresse":"Stadtweg 36","ort":"Schleswig","zeiten":"Mo-Sa 10:30-20:30; PH,Su 11:00-20:30"},"geometry":{"type":"Point","coordinates":[9.563097,54.516616]}},{"type":"Feature","properties":{"name":"Kombüse","cat":"restaurant","cuisine":"seafood","website":"https://www.kombuese-kappeln.de/","phone":"+49 4642 9659375","adresse":"Am Hafen 17","ort":"Kappeln","zeiten":"Mo-Su 11:00-20:30"},"geometry":{"type":"Point","coordinates":[9.934439,54.661756]}},{"type":"Feature","properties":{"name":"Koseler Hof","cat":"restaurant","cuisine":"german","website":"https://koseler-hof.net/","phone":"+49 4354 1320","adresse":"Alte Landstraße 2","ort":"Kosel","zeiten":"Tu-Su 16:00-21:30; Mo off"},"geometry":{"type":"Point","coordinates":[9.754614,54.50535]}},{"type":"Feature","properties":{"name":"Kulinar36","cat":"restaurant","website":"https://www.gewoba-nord.de/quartier36/kulinar36/","phone":"+49 4621 811199","adresse":"Moltkestraße 36-38","ort":"Schleswig","zeiten":"Mo-Fr 07:30-15:00; Sa,Su,PH off"},"geometry":{"type":"Point","coordinates":[9.557264,54.520463]}},{"type":"Feature","properties":{"name":"Kunst-Café","cat":"cafe","phone":"+49 4354 742","adresse":"Auf der Höhe 10","ort":"Fleckeby","zeiten":"Sa-Tu 14:00-18:00"},"geometry":{"type":"Point","coordinates":[9.692272,54.47773]}},{"type":"Feature","properties":{"name":"Kurrywurst","cat":"imbiss"},"geometry":{"type":"Point","coordinates":[9.575969,54.535376]}},{"type":"Feature","properties":{"name":"Kürbisklause","cat":"imbiss","website":"http://www.klgv-kappeln.de/vheim/klause.html","phone":"+49 4642 81761","adresse":"Neukappeln 50","ort":"Kappeln","zeiten":"Tu-Sa 17:00-22:00; Su 10:00-13:00; Mo off"},"geometry":{"type":"Point","coordinates":[9.925055,54.665343]}},{"type":"Feature","properties":{"name":"La Dolce Vita","cat":"restaurant","cuisine":"italian","website":"https://ladolcevitakappeln.metro.biz/","phone":"+49 4642 7132","adresse":"Jöns-Hof-Passage 2","ort":"Kappeln","zeiten":"Mo,We-Sa 11:00-21:00; Su 12:00-22:00; Tu off"},"geometry":{"type":"Point","coordinates":[9.932002,54.660916]}},{"type":"Feature","properties":{"name":"La Gondola","cat":"cafe","cuisine":"ice cream","phone":"+49 4642 1562","adresse":"Poststraße 7","ort":"Kappeln","zeiten":"\"Winterpause\""},"geometry":{"type":"Point","coordinates":[9.933255,54.660956]}},{"type":"Feature","properties":{"name":"Landhaus Café & Bistro","cat":"restaurant","website":"https://www.gut-oehe.de/de/kulinarik/landhaus-cafe-bistro/","phone":"+49 4642 6029","adresse":"Oehe 1a","ort":"Maasholm","zeiten":"Mar-Dec: We-Su 12:00-17:00; 17:30-21:00; Jan-Feb: off"},"geometry":{"type":"Point","coordinates":[10.002377,54.70717]}},{"type":"Feature","properties":{"name":"Landhaus Stella-Kathrin","cat":"schlafen","website":"http://www.landhaus-stella-kathrin.de/","phone":"+49 4642 964245","adresse":"Olpenitzer Dorfstraße 27","ort":"Kappeln"},"geometry":{"type":"Point","coordinates":[10.006096,54.663242]}},{"type":"Feature","properties":{"name":"Lemke","cat":"cafe","adresse":"Kornmarkt 6","zeiten":"Mo,We-Sa 10:00-18:00; Su,PH 12:00-18:00"},"geometry":{"type":"Point","coordinates":[9.56754,54.517508]}},{"type":"Feature","properties":{"name":"Lobster","cat":"restaurant","cuisine":"burger · fish","website":"https://lobster-kappeln.de/","phone":"+49 4642 8444","adresse":"Weidefelder Strand 1","ort":"Kappeln","zeiten":"We-Su 12:00-19:30"},"geometry":{"type":"Point","coordinates":[10.03018,54.651638]}},{"type":"Feature","properties":{"name":"Luzifer","cat":"restaurant","website":"https://www.luzifer89.de/schleswig/","phone":"+49 4621 488213","adresse":"Königstraße 27","ort":"Schleswig","zeiten":"Mo-Th 10:00-22:00; Fr 10:00-23:00; Sa 09:00-23:00; Su 09:00-22:00"},"geometry":{"type":"Point","coordinates":[9.561917,54.514406]}},{"type":"Feature","properties":{"name":"Manni's Wurst und Frikadellen-Tempel","cat":"imbiss","cuisine":"sausage","adresse":"Sankt-Jürgener-Straße 53","ort":"Schleswig","zeiten":"Mo-Sa 11:00-18:00"},"geometry":{"type":"Point","coordinates":[9.572716,54.531649]}},{"type":"Feature","properties":{"name":"Marienbad","cat":"cafe","website":"https://strandrestaurant-marienbad.de/","adresse":"Strandweg 1a","ort":"Busdorf"},"geometry":{"type":"Point","coordinates":[9.55329,54.502801]}},{"type":"Feature","properties":{"name":"Marina Brodersby","cat":"hafen","website":"https://www.marina-brodersby.de/","phone":"+49 4622 2188"},"geometry":{"type":"Point","coordinates":[9.713397,54.521257]}},{"type":"Feature","properties":{"name":"Marina Hülsen","cat":"hafen","phone":"+49 4355 8999000"},"geometry":{"type":"Point","coordinates":[9.752695,54.548024]}},{"type":"Feature","properties":{"name":"Marina, Bootswerft-Modersitzki","cat":"hafen","website":"https://www.bootswerft-modersitzki.de/","phone":"+49 4642 6013"},"geometry":{"type":"Point","coordinates":[9.987615,54.685999]}},{"type":"Feature","properties":{"name":"Marvil","cat":"cafe","phone":"+49 4621 23337","adresse":"Stadtweg 1-3","ort":"Schleswig","zeiten":"Mo-Sa 09:00-19:00"},"geometry":{"type":"Point","coordinates":[9.566933,54.517307]}},{"type":"Feature","properties":{"name":"Maximilian","cat":"restaurant","cuisine":"international","website":"https://www.maximilian-schleswig.de/","phone":"+49 4621 25212","adresse":"Schubystraße 47","ort":"Schleswig"},"geometry":{"type":"Point","coordinates":[9.559793,54.520809]}},{"type":"Feature","properties":{"name":"McDonald's","cat":"imbiss","cuisine":"burger","adresse":"Eckernförder Straße 9b","ort":"Kappeln","zeiten":"Mo-Su 10:00-23:00"},"geometry":{"type":"Point","coordinates":[9.945349,54.656754]}},{"type":"Feature","properties":{"name":"McDonald's","cat":"imbiss","cuisine":"burger","website":"https://www.mcdonalds.com/de/de-de/restaurant-suche.html/l/schleswig/schleidorfer-strasse-1a/686&cid=listing_0686","phone":"+49 4621 953380","adresse":"Schleidörferstraße 1a","ort":"Schleswig","zeiten":"Mo-Th 07:00-01:00, Fr,Sa 07:00-04:00, Su 08:00-01:00"},"geometry":{"type":"Point","coordinates":[9.575467,54.530795]}},{"type":"Feature","properties":{"name":"Meerestochter","cat":"restaurant","cuisine":"german · regional","website":"https://meerestochter-kappeln.de/","phone":"+49 4642 9234270","adresse":"Dehnthof 36","ort":"Kappeln","zeiten":"We-Fr 11:30-14:30,17:00-21:30; Sa,Su 11:30-21:30; Mo,Tu off"},"geometry":{"type":"Point","coordinates":[9.934827,54.662344]}},{"type":"Feature","properties":{"name":"Milano","cat":"restaurant","cuisine":"italian","website":"https://milano-schleswig.de/","adresse":"Stadtweg 65","ort":"Schleswig","zeiten":"Th-Tu,PH 12:30-15:00; We off, Th-Tu,PH 17:00-22:00"},"geometry":{"type":"Point","coordinates":[9.558613,54.515596]}},{"type":"Feature","properties":{"name":"Missunder Yachtclub","cat":"hafen","website":"https://www.miyc.de/","phone":"+49 4622 180950"},"geometry":{"type":"Point","coordinates":[9.715947,54.524907]}},{"type":"Feature","properties":{"name":"Mittelmann's Werft","cat":"hafen","website":"http://www.mittelmannswerft.de/hafen/hafen.html","phone":"+49 4642 2722"},"geometry":{"type":"Point","coordinates":[9.933577,54.651804]}},{"type":"Feature","properties":{"name":"Mormor's","cat":"cafe","cuisine":"cake","phone":"+49 4642 6969120","adresse":"Neuer Damm 82","ort":"Arnis","zeiten":"Mo-We 08:00-12:00; Th-Su 08:00-16:00"},"geometry":{"type":"Point","coordinates":[9.931855,54.630656]}},{"type":"Feature","properties":{"name":"Museumshafen Kappeln","cat":"hafen","website":"https://www.museumshafen-kappeln.de/","phone":"+49 4642 4664"},"geometry":{"type":"Point","coordinates":[9.936142,54.654352]}},{"type":"Feature","properties":{"name":"Muttis","cat":"restaurant","website":"https://www.heimat-freiheit.de/restaurant","zeiten":"\"Nur zu Veranstaltungen\""},"geometry":{"type":"Point","coordinates":[9.591871,54.51644]}},{"type":"Feature","properties":{"name":"Muu","cat":"cafe","zeiten":"Mo-Su 10:00-18:00"},"geometry":{"type":"Point","coordinates":[9.935908,54.663308]}},{"type":"Feature","properties":{"name":"My Kebap","cat":"imbiss","cuisine":"kebab","website":"https://www.my-kebap-schleswig.de/","phone":"+49 4621 4278906","adresse":"Haithaburing 2","ort":"Schleswig","zeiten":"Mo 11:00-22:00, Tu-Fr 11:00-22:00, Sa-Su 12:00-22:00"},"geometry":{"type":"Point","coordinates":[9.533334,54.496435]}},{"type":"Feature","properties":{"name":"Mühlenbach","cat":"restaurant","cuisine":"steak house","website":"https://muehlenbach-schleswig.de/","phone":"+49 4621 9787480","adresse":"Mönchenbrückstraße 10","ort":"Schleswig","zeiten":"We-Mo 11:30-14:30, 17:30-22:00; Tu off"},"geometry":{"type":"Point","coordinates":[9.568116,54.517535]}},{"type":"Feature","properties":{"name":"Naturcamping Hellör","cat":"camping","website":"https://www.camping-helloer.de/","phone":"+49 4622 533","adresse":"Hellör 1","ort":"Brodersby-Goltoft","zeiten":"Apr 1-Oct 3: open"},"geometry":{"type":"Point","coordinates":[9.734119,54.535492]}},{"type":"Feature","properties":{"name":"Nordlicht","cat":"schlafen","website":"http://www.nordlicht.sh/","phone":"+49 4642 98400","adresse":"Uferweg 1a","ort":"Kappeln"},"geometry":{"type":"Point","coordinates":[9.947863,54.638578]}},{"type":"Feature","properties":{"name":"Nordlicht","cat":"restaurant","cuisine":"regional","website":"http://www.nordlicht.sh/","phone":"+49 4642 98400","zeiten":"17:00-21:30"},"geometry":{"type":"Point","coordinates":[9.947636,54.638523]}},{"type":"Feature","properties":{"name":"Obsthof Stubbe","cat":"cafe","website":"https://obsthof-stubbe.de/","phone":"+49 4355 2530247","adresse":"Lindaunisbrücke 1a","ort":"Rieseby","zeiten":"Fr-Su 09:00-17:00; Mo-Th off"},"geometry":{"type":"Point","coordinates":[9.824454,54.579964]}},{"type":"Feature","properties":{"name":"Odins Hafenbar","cat":"imbiss","website":"https://www.odins-haddeby.de/odins-hafenbar/","zeiten":"Fr-Su 14:00-22:00 \"bei gutem Wetter\""},"geometry":{"type":"Point","coordinates":[9.569818,54.50124]}},{"type":"Feature","properties":{"name":"Odins Haithabu","cat":"restaurant","cuisine":"regional","website":"https://www.odins-haddeby.de/","phone":"+49 4621 850500","adresse":"Haddebyer Chaussee 13","ort":"Busdorf","zeiten":"Mo-Fr 8:00-22:00,Sa-Su 7:00 - 22:00"},"geometry":{"type":"Point","coordinates":[9.569897,54.501082]}},{"type":"Feature","properties":{"name":"Olearius","cat":"restaurant","zeiten":"Mo-Su 12:00-14:00,18:00-22:00"},"geometry":{"type":"Point","coordinates":[9.520472,54.508875]}},{"type":"Feature","properties":{"name":"Omas Kaffeestübchen","cat":"cafe","zeiten":"Tu-Sa 11:30-16:00; Su 13:00-18:00; Mo off"},"geometry":{"type":"Point","coordinates":[9.591498,54.516155]}},{"type":"Feature","properties":{"name":"Onkel Le","cat":"imbiss","cuisine":"asian · sushi","website":"http://www.onkel-le-schleswig.de/","phone":"+49 4621 8559075","adresse":"Am Lornsenpark 31","ort":"Schleswig","zeiten":"Tu-Sa 11:30-14:30,17:00-20:00; Su 16:00-20:00; Mo off"},"geometry":{"type":"Point","coordinates":[9.567852,54.517028]}},{"type":"Feature","properties":{"name":"Orient-Grill","cat":"imbiss","cuisine":"kebab · pizza · international","phone":"+49 4642 3887","adresse":"Querstraße 16","ort":"Kappeln","zeiten":"Mo-Sa 11:00-22:00; Su 12:00-22:00"},"geometry":{"type":"Point","coordinates":[9.931055,54.660988]}},{"type":"Feature","properties":{"name":"Ostseecamping Gut Oehe","cat":"camping","website":"https://www.camping-oehe.de/","phone":"+49 4642 6124","adresse":"Drecht 6","ort":"Hasselberg","zeiten":"Mar 21-Sep 30"},"geometry":{"type":"Point","coordinates":[9.991907,54.713782]}},{"type":"Feature","properties":{"name":"Palette","cat":"imbiss","website":"https://www.palette-kappeln.de/","phone":"+49 4642 9226006","adresse":"Kehrwieder 1","ort":"Kappeln","zeiten":"Fr-Tu 09:00-24:00; We 16:00-24:00"},"geometry":{"type":"Point","coordinates":[9.933508,54.660954]}},{"type":"Feature","properties":{"name":"Patio","cat":"restaurant","website":"http://www.patio-schleswig.com","phone":"+49 4621 29999","adresse":"Lollfuß 3","ort":"Schleswig","zeiten":"Mo-Sa 17:00+"},"geometry":{"type":"Point","coordinates":[9.555952,54.51489]}},{"type":"Feature","properties":{"name":"Paulsen","cat":"hafen","website":"https://www.mp-jachtwerft.de"},"geometry":{"type":"Point","coordinates":[9.932261,54.632418]}},{"type":"Feature","properties":{"name":"Pedi's Waldschänke","cat":"restaurant","adresse":"Wassermühlenholz 3","ort":"Kappeln","zeiten":"We-Fr 17:00-22:00; Sa-Su 14:00-22:00"},"geometry":{"type":"Point","coordinates":[9.928266,54.673364]}},{"type":"Feature","properties":{"name":"Pension Zum Weißen Schwan","cat":"schlafen","website":"https://pension-zum-weissen-schwan.de/","phone":"+49 4621 977399","adresse":"Gottorfstraße 1","ort":"Schleswig"},"geometry":{"type":"Point","coordinates":[9.54294,54.509484]}},{"type":"Feature","properties":{"name":"Pfotencafé Weidefeld","cat":"cafe","zeiten":"Apr-Sep: Sa,Su 14:00-17:00"},"geometry":{"type":"Point","coordinates":[10.010147,54.646414]}},{"type":"Feature","properties":{"name":"Pierspeicher","cat":"schlafen","website":"https://pierspeicher.de/","phone":"+49 4642 924780","adresse":"Am Hafen 19c","ort":"Kappeln"},"geometry":{"type":"Point","coordinates":[9.934951,54.66267]}},{"type":"Feature","properties":{"name":"Pinocchio","cat":"cafe","cuisine":"ice cream","adresse":"Querstraße 14","ort":"Kappeln","zeiten":"Mo-Su 10:00-22:00"},"geometry":{"type":"Point","coordinates":[9.931252,54.661151]}},{"type":"Feature","properties":{"name":"Pizza Flitzer","cat":"imbiss","cuisine":"italian · pizza","website":"https://www.pizza-flitzer-schleswig.de/","phone":"+49 4621 24052","adresse":"Lollfuß 80","ort":"Schleswig","zeiten":"Mo-Sa 17:00-22:00, Su 12:00-22:00"},"geometry":{"type":"Point","coordinates":[9.549634,54.513521]}},{"type":"Feature","properties":{"name":"Pizza King","cat":"imbiss","cuisine":"pizza","website":"https://www.pizzaking-schleswig.com/","phone":"+49 4621 999460","adresse":"Domziegelhof 12","ort":"Schleswig","zeiten":"Mo-Su 11:00-23:00"},"geometry":{"type":"Point","coordinates":[9.555852,54.514369]}},{"type":"Feature","properties":{"name":"Pizza Lounge","cat":"restaurant","cuisine":"pizza","website":"https://pizzalounge-kappeln.de/","phone":"+49 4642 9646070","adresse":"Querstraße 14","ort":"Kappeln","zeiten":"Mo-Su 11:30-22:00"},"geometry":{"type":"Point","coordinates":[9.931026,54.661133]}},{"type":"Feature","properties":{"name":"Puri Puri","cat":"restaurant","cuisine":"indian","website":"https://www.puripuri-schleswig.de/","phone":"+49 176 84405204","adresse":"Lollfuß 96c","ort":"Schleswig","zeiten":"Tu-Sa 12:00-14:00,17:00-22:00; Su,Mo 17:00-22:00"},"geometry":{"type":"Point","coordinates":[9.548355,54.51292]}},{"type":"Feature","properties":{"name":"Puri Quick","cat":"imbiss","cuisine":"indian","zeiten":"Tu-Sa 12:00-14:30"},"geometry":{"type":"Point","coordinates":[9.564523,54.516249]}},{"type":"Feature","properties":{"name":"Reisemobilplatz Maasholm","cat":"camping","website":"https://maasholm.de/urlaub/wohnmobilstellplatz/","phone":"+49 4642 965068","adresse":"Uleweg 31","ort":"Maasholm","zeiten":"24/7"},"geometry":{"type":"Point","coordinates":[9.994784,54.683547]}},{"type":"Feature","properties":{"name":"Renz Yachting","cat":"hafen","website":"http://www.renzyachting.de","phone":"+49 4621 35877"},"geometry":{"type":"Point","coordinates":[9.547675,54.509044]}},{"type":"Feature","properties":{"name":"Restaurant Raub","cat":"restaurant","website":"https://www.restaurant-raub.de/","phone":"+49 4642 9653939","adresse":"Hauptstraße 60","ort":"Maasholm","zeiten":"PH,We-Su 12:00-21:00"},"geometry":{"type":"Point","coordinates":[9.990657,54.684423]}},{"type":"Feature","properties":{"name":"Restaurant Riva","cat":"restaurant","website":"https://www.riva-schleswig.de/","phone":"+49 4621 22255","adresse":"Gottorfer Damm 1","ort":"Schleswig","zeiten":"Tu,We 18:00-22:00; Th-Su 12:00-14:00,18:00-22:00; Mo off"},"geometry":{"type":"Point","coordinates":[9.547379,54.510923]}},{"type":"Feature","properties":{"name":"Rhodos","cat":"restaurant","cuisine":"greek","website":"https://www.rhodoskappeln.de/","phone":"+49 4642 3121","adresse":"Mühlenstraße 11","ort":"Kappeln","zeiten":"Jul-Aug Mo-Sa 17:00-22:00; Su,PH 12:00-14:30,17:00-22:00; Sep-Jun Mo,We-Sa 17:00-22:00; Tu off; Su,PH 12:00-14:30,17:00-22:00"},"geometry":{"type":"Point","coordinates":[9.932263,54.66032]}},{"type":"Feature","properties":{"name":"Rick’s Imbiss","cat":"imbiss","cuisine":"burger","website":"https://www.ricks-imbiss.de/","adresse":"Haddebyer Chaussee 5a","ort":"Busdorf","zeiten":"Tu-Su 11:00-21:00"},"geometry":{"type":"Point","coordinates":[9.55318,54.499709]}},{"type":"Feature","properties":{"name":"Ricos Schnellrestaurant","cat":"imbiss","cuisine":"pizza","adresse":"Dorfstraße 40","ort":"Rieseby"},"geometry":{"type":"Point","coordinates":[9.812547,54.541706]}},{"type":"Feature","properties":{"name":"Riesby Krog Café","cat":"cafe","cuisine":"cake","website":"https://www.riesby-krog.de/","phone":"+49 4355 244","adresse":"Dorfstraße 35","ort":"Rieseby","zeiten":"We-Sa 13:00-17:00; Su 08:00-11:30, 13:00-17:00"},"geometry":{"type":"Point","coordinates":[9.812996,54.541915]}},{"type":"Feature","properties":{"name":"Ringelnatz","cat":"restaurant","cuisine":"regional","website":"https://www.ringelnatz-schleswig.de/","phone":"+49 4621 20177","adresse":"Fischbrückstraße 3","ort":"Schleswig","zeiten":"Tu-Sa 16:00-20:00"},"geometry":{"type":"Point","coordinates":[9.572854,54.513841]}},{"type":"Feature","properties":{"name":"Ristorante Roma","cat":"restaurant","cuisine":"italian","website":"https://roma-schleswig.de/","phone":"+49 4621 4197969","adresse":"Lollfuß 74a","ort":"Schleswig","zeiten":"Tu off; PH,We-Mo 12:00-14:30,17:00-22:00"},"geometry":{"type":"Point","coordinates":[9.55135,54.513906]}},{"type":"Feature","properties":{"name":"Riva del Mare","cat":"restaurant","cuisine":"cake · fish · ice cream","website":"https://riva-del-mare-restaurant-kappeln.eatbu.com/","phone":"+49 4642 9832408","adresse":"Am Hafen 12","ort":"Kappeln","zeiten":"Mo-Su 11:30-21:30"},"geometry":{"type":"Point","coordinates":[9.934152,54.660977]}},{"type":"Feature","properties":{"name":"Sale e Pepe","cat":"restaurant","cuisine":"italian","website":"https://www.gut-oehe.de/de/kulinarik/pizzeria/","phone":"+49 4642 1773999","adresse":"Drecht 6","ort":"Hasselberg","zeiten":"Jan-Feb: off; Mar-Dec: Mo,Tu,Th 16:00-21:00; Fr-Su 12:00-21:00; We off"},"geometry":{"type":"Point","coordinates":[9.991801,54.714499]}},{"type":"Feature","properties":{"name":"Sand am Meer","cat":"cafe","cuisine":"breakfast · cake · coffee shop · tea","website":"http://www.cafe-sand-am-meer.de/","phone":"+49 4642 969963","adresse":"Hauptstraße 13","ort":"Maasholm","zeiten":"Tu-Fr 12:00+; Sa,Su 09:00-17:30; Mo off"},"geometry":{"type":"Point","coordinates":[9.990786,54.685082]}},{"type":"Feature","properties":{"name":"Sapori D'Italia","cat":"cafe","cuisine":"italian","website":"https://www.instagram.com/saporiditaliaschleswig","adresse":"Stadtweg 12","ort":"Schleswig"},"geometry":{"type":"Point","coordinates":[9.566161,54.517141]}},{"type":"Feature","properties":{"name":"Sawo's Pizza & Döner","cat":"imbiss","cuisine":"kebab · italian · pizza","adresse":"Berliner Straße 42","ort":"Schleswig"},"geometry":{"type":"Point","coordinates":[9.557901,54.524049]}},{"type":"Feature","properties":{"name":"Schaalby Hof","cat":"camping","website":"https://schaalbyhof.de/","phone":"+49 4622 1849770","adresse":"Raiffeisenstraße 3"},"geometry":{"type":"Point","coordinates":[9.634163,54.544693]}},{"type":"Feature","properties":{"name":"Schiffswerft Heinrich Eberhardt","cat":"hafen","website":"https://schiffswerft-otto-eberhardt.de/","phone":"+49 4642 2135"},"geometry":{"type":"Point","coordinates":[9.932041,54.628521]}},{"type":"Feature","properties":{"name":"Schlei Marina Wohnmobilstellplatz","cat":"camping","phone":"+49 4641 3141","adresse":"Lindauhof 5"},"geometry":{"type":"Point","coordinates":[9.803703,54.586655]}},{"type":"Feature","properties":{"name":"Schlei-Bar","cat":"imbiss","zeiten":"11:00-19:00"},"geometry":{"type":"Point","coordinates":[10.016905,54.659198]}},{"type":"Feature","properties":{"name":"Schlei-Kate","cat":"restaurant"},"geometry":{"type":"Point","coordinates":[9.82659,54.594249]}},{"type":"Feature","properties":{"name":"Schlei-Stübchen","cat":"restaurant","zeiten":"Mo-Su 12:00-21:00"},"geometry":{"type":"Point","coordinates":[9.884498,54.619756]}},{"type":"Feature","properties":{"name":"SchleiFee","cat":"schlafen","website":"https://www.ostseehotel-schleifee.de","phone":"+49 4642 9831334","adresse":"Eckernförder Straße 16","ort":"Kappeln"},"geometry":{"type":"Point","coordinates":[9.948663,54.639033]}},{"type":"Feature","properties":{"name":"Schleiblick","cat":"schlafen","website":"https://www.hotel-schleiblick.de/","phone":"+49 4621 23468","adresse":"Hafengang 4","ort":"Schleswig"},"geometry":{"type":"Point","coordinates":[9.571474,54.51231]}},{"type":"Feature","properties":{"name":"Schleihotel","cat":"schlafen","website":"https://www.schleihotel.de/","phone":"+49 4642 1052","adresse":"Theodor-Storm-Straße 2","ort":"Kappeln"},"geometry":{"type":"Point","coordinates":[9.929553,54.658616]}},{"type":"Feature","properties":{"name":"Schleimöwe","cat":"restaurant","cuisine":"fish","website":"http://www.schleimoewe.de/","phone":"+49 4621 24309","adresse":"Süderholmstraße 8","ort":"Schleswig","zeiten":"Mo-Su 11:30-13:30,17:00-21:00"},"geometry":{"type":"Point","coordinates":[9.573714,54.512803]}},{"type":"Feature","properties":{"name":"Schleimöwe","cat":"restaurant","cuisine":"german · italian","phone":"+49 1575 2027930","adresse":"Schleistraße 1","ort":"Boren","zeiten":"Apr-Oct Th-Tu 12:00-21:00; We off; Nov-Mar off"},"geometry":{"type":"Point","coordinates":[9.816243,54.586436]}},{"type":"Feature","properties":{"name":"Schleimünde","cat":"hafen"},"geometry":{"type":"Point","coordinates":[10.032596,54.673283]}},{"type":"Feature","properties":{"name":"Schleswig Schlei-Segel-Club","cat":"hafen","website":"http://www.ssc-online.eu/","phone":"+49 4621 484930"},"geometry":{"type":"Point","coordinates":[9.555896,54.511754]}},{"type":"Feature","properties":{"name":"Schrader Marina Borgwedel","cat":"hafen","website":"https://www.schrader-marina.de/","phone":"+49 4354 80023"},"geometry":{"type":"Point","coordinates":[9.672231,54.496102]}},{"type":"Feature","properties":{"name":"Seagull","cat":"restaurant","website":"https://seagull-kappeln.de/","adresse":"Am Südhafen 3","ort":"Kappeln","zeiten":"Mo,Tu 17:00-21:00; Fr,Sa 14:00-22:00; Su 12:00-17:00; We,Th off"},"geometry":{"type":"Point","coordinates":[9.934278,54.652501]}},{"type":"Feature","properties":{"name":"Segelclub Ahoi e.V.","cat":"hafen","website":"https://www.segel-club-ahoi.de/"},"geometry":{"type":"Point","coordinates":[9.555853,54.511383]}},{"type":"Feature","properties":{"name":"Shawarma Aleppo","cat":"imbiss","cuisine":"arab","adresse":"Gallberg 29","ort":"Schleswig"},"geometry":{"type":"Point","coordinates":[9.57021,54.518166]}},{"type":"Feature","properties":{"name":"Smager","cat":"restaurant","cuisine":"regional","adresse":"Dorfstraße 2","ort":"Fleckeby","zeiten":"Tu-Su 17:00-22:00"},"geometry":{"type":"Point","coordinates":[9.707988,54.483956]}},{"type":"Feature","properties":{"name":"Smiley's Pizza","cat":"imbiss","cuisine":"pizza","website":"https://www.smileys.de/bestellen/Schleswig","adresse":"Flensburger Straße 74","ort":"Schleswig","zeiten":"Mo-Su 11:00-23:00"},"geometry":{"type":"Point","coordinates":[9.544449,54.5224]}},{"type":"Feature","properties":{"name":"Specht Speisewirtschaft","cat":"restaurant","cuisine":"regional","website":"https://www.spechtspeiswirtschaft.de/","phone":"+49 4642 9834863","adresse":"Friedenshöher Straße 21","ort":"Grödersby","zeiten":"We-Su 18:00-21:00"},"geometry":{"type":"Point","coordinates":[9.92899,54.633361]}},{"type":"Feature","properties":{"name":"Sport Bistro","cat":"imbiss"},"geometry":{"type":"Point","coordinates":[9.813969,54.543902]}},{"type":"Feature","properties":{"name":"Sportboothafen Fleckeby","cat":"hafen","website":"https://www.sportboothafen-fleckeby.de/","phone":"+49 4354 98211"},"geometry":{"type":"Point","coordinates":[9.700284,54.490686]}},{"type":"Feature","properties":{"name":"Sportboothafen Lindaunis","cat":"hafen","website":"http://www.sportboothafen-lindaunis.de/","phone":"+49 1578 2040608"},"geometry":{"type":"Point","coordinates":[9.822592,54.586123]}},{"type":"Feature","properties":{"name":"Sportboothafen Maasholm","cat":"hafen","website":"https://maasholm.de/maasholm/sportboothafen.html","phone":"+49 4642 6571"},"geometry":{"type":"Point","coordinates":[9.993932,54.681219]}},{"type":"Feature","properties":{"name":"Sportheim TSV Nordschwansen/Karby","cat":"imbiss"},"geometry":{"type":"Point","coordinates":[9.976883,54.622033]}},{"type":"Feature","properties":{"name":"Stadt Kappeln","cat":"schlafen","website":"https://www.hotel-stadt-kappeln.de/","phone":"+49 4642 4021","adresse":"Schmiedestraße 36","ort":"Kappeln"},"geometry":{"type":"Point","coordinates":[9.928267,54.662128]}},{"type":"Feature","properties":{"name":"Stadthafen Schleswig","cat":"hafen","website":"https://www.hafen-schleswig.de/","phone":"+49 4621 801450"},"geometry":{"type":"Point","coordinates":[9.570019,54.511281]}},{"type":"Feature","properties":{"name":"Stapelfeldt","cat":"hafen"},"geometry":{"type":"Point","coordinates":[9.939844,54.67103]}},{"type":"Feature","properties":{"name":"Steakhouse Mr. Angus","cat":"restaurant","website":"https://mrangus.jimdofree.com","phone":"+49 4621 24844","adresse":"Stadtweg 9","ort":"Schleswig","zeiten":"Mo-Sa 11:30-14:30,17:30-21:30; Su 11:30-14:00,17:30-20:30"},"geometry":{"type":"Point","coordinates":[9.566282,54.516958]}},{"type":"Feature","properties":{"name":"Strandclub Luisenbad","cat":"cafe","website":"http://www.strandclub-luisenbad.de","phone":"+49 4621 999715","adresse":"Luisenbad 1c","ort":"Schleswig","zeiten":"PH,Mo-Su 10:00+"},"geometry":{"type":"Point","coordinates":[9.558788,54.511283]}},{"type":"Feature","properties":{"name":"Strandhalle","cat":"schlafen","website":"https://www.hotel-strandhalle.de/","phone":"+49 4621 909-0","adresse":"Strandweg 2","ort":"Schleswig","zeiten":"\"nach Vereinbarung\""},"geometry":{"type":"Point","coordinates":[9.557043,54.51323]}},{"type":"Feature","properties":{"name":"Strandhalle","cat":"restaurant","cuisine":"german · oriental · turkish","website":"https://arnis.de/strandhalle/","phone":"+49 4642 9889029","adresse":"Strandweg 123","ort":"Arnis","zeiten":"Mo-Su 09:00-21:00"},"geometry":{"type":"Point","coordinates":[9.92932,54.627848]}},{"type":"Feature","properties":{"name":"Strandleben","cat":"restaurant","website":"https://www.strandleben-schleswig.de/","phone":"+49 4621 3969965","adresse":"Schleibogen 6","ort":"Schleswig","zeiten":"Mo,We,Th 08:00-10:30,12:00-16:00,17:00-21:00; Tu 08:00-10:30,12:00-16:00; Fr,Sa,Su 08:00-10:30,12:00-21:00"},"geometry":{"type":"Point","coordinates":[9.586253,54.510895]}},{"type":"Feature","properties":{"name":"Strandleben","cat":"schlafen","website":"https://www.strandleben-schleswig.de/","phone":"+49 4621 3969965","adresse":"Schleibogen 6","ort":"Schleswig"},"geometry":{"type":"Point","coordinates":[9.586075,54.510694]}},{"type":"Feature","properties":{"name":"Störtebeker","cat":"restaurant","adresse":"Am Hafen 4","ort":"Kappeln"},"geometry":{"type":"Point","coordinates":[9.933841,54.660274]}},{"type":"Feature","properties":{"name":"Subway","cat":"imbiss","cuisine":"sandwich","website":"https://restaurants.subway.com/germany/sh/schleswig/flensburger-stra%C3%9Fe-61","phone":"+49 4621 9774204","adresse":"Flensburger Straße 91","ort":"Schleswig","zeiten":"Mo-Th 09:00-22:00; Fr,Sa 09:00-23:00; Su,PH 11:00-22:00"},"geometry":{"type":"Point","coordinates":[9.527753,54.528785]}},{"type":"Feature","properties":{"name":"Taj","cat":"restaurant","cuisine":"indian","website":"https://www.tajschleswig.de/","phone":"+49 4621 4278110","adresse":"Lollfuß 39","ort":"Schleswig","zeiten":"Tu-Sa 11:30-14:30,17:00-22:00; Su 15:00-22:00"},"geometry":{"type":"Point","coordinates":[9.553304,54.514512]}},{"type":"Feature","properties":{"name":"Taste","cat":"imbiss","phone":"+49 4621 28000","adresse":"Am Lornsenpark 2","ort":"Schleswig","zeiten":"Mo,We-Th,Su 11:00-22:00; Fr-Sa 11:00-24:00"},"geometry":{"type":"Point","coordinates":[9.566113,54.516297]}},{"type":"Feature","properties":{"name":"Tauwerk","cat":"restaurant","cuisine":"german","website":"https://www.tauwerk-asc.de/","phone":"+49 4642 2158","adresse":"Am Südhafen 4","ort":"Kappeln","zeiten":"We-Su 12:00-21:00"},"geometry":{"type":"Point","coordinates":[9.935104,54.657389]}},{"type":"Feature","properties":{"name":"To Gao","cat":"restaurant","website":"https://togao.de/"},"geometry":{"type":"Point","coordinates":[9.583285,54.511835]}},{"type":"Feature","properties":{"name":"To Gao Schleswig","cat":"restaurant","cuisine":"asian","website":"https://togao.de/","phone":"+49 4621 9777297","adresse":"Auf der Freiheit 4","ort":"Schleswig","zeiten":"Mo-Fr 11:30-22:00; Sa-Su 12:00-22:00"},"geometry":{"type":"Point","coordinates":[9.583097,54.511763]}},{"type":"Feature","properties":{"name":"Tonne 15","cat":"restaurant","cuisine":"regional","phone":"+49 4642 924161","adresse":"Uleweg 31","ort":"Maasholm","zeiten":"Th-Mo 11:30-21:00; Tu,We off"},"geometry":{"type":"Point","coordinates":[9.993783,54.682919]}},{"type":"Feature","properties":{"name":"Tonne 98","cat":"restaurant","website":"https://www.tonne98.de/","phone":"+49 175 2043836","adresse":"Marina 1","ort":"Brodersby-Goltoft","zeiten":"Apr-Oct: Tu-Th 12:00-21:00; Fr-Sa 12:00-22:00; Su 12:00-21:00; Mo off; Nov-Mar: off"},"geometry":{"type":"Point","coordinates":[9.712197,54.521543]}},{"type":"Feature","properties":{"name":"Treffpunkt-Café TiLO","cat":"cafe","zeiten":"Mo-Fr 09:00-13:00"},"geometry":{"type":"Point","coordinates":[9.553421,54.514898]}},{"type":"Feature","properties":{"name":"Trekkingplatz bei Kosel","cat":"camping","website":"https://www.naturschutz-sh.de/wildes-sh/trekkingplatz-kosel"},"geometry":{"type":"Point","coordinates":[9.771427,54.506677]}},{"type":"Feature","properties":{"name":"Vegkabab","cat":"imbiss","adresse":"Stadtweg 14","ort":"Schleswig"},"geometry":{"type":"Point","coordinates":[9.565995,54.517083]}},{"type":"Feature","properties":{"name":"Venezia Pizza Express","cat":"imbiss","cuisine":"pizza","phone":"+49 4642 9224255","adresse":"Jöns-Hof-Passage 1","ort":"Kappeln","zeiten":"Tu-Su 17:00-22:00"},"geometry":{"type":"Point","coordinates":[9.931567,54.660685]}},{"type":"Feature","properties":{"name":"Victoria","cat":"restaurant","cuisine":"regional","website":"https://www.gasthof-victoria.de/","phone":"+49 4644 860","adresse":"Dorfstraße 3","ort":"Winnemark","zeiten":"Tu,Th 18:00-22:00; Fr,Sa,Su 10:00-14:00,18:00-22:00; Mo,We off"},"geometry":{"type":"Point","coordinates":[9.920784,54.61449]}},{"type":"Feature","properties":{"name":"Vitalien","cat":"cafe","adresse":"Stadtfeld 2","ort":"Schleswig"},"geometry":{"type":"Point","coordinates":[9.564069,54.521431]}},{"type":"Feature","properties":{"name":"Waldschlösschen","cat":"schlafen","website":"https://www.hotel-waldschloesschen.de/","phone":"+49 4621 3830","adresse":"Kolonnenweg 152","ort":"Schleswig"},"geometry":{"type":"Point","coordinates":[9.520521,54.508631]}},{"type":"Feature","properties":{"name":"Wassersport Borgwedel","cat":"hafen","phone":"+49 4354 1419"},"geometry":{"type":"Point","coordinates":[9.669808,54.500439]}},{"type":"Feature","properties":{"name":"Wassersportgemeinschaft Arnis/Grödersby","cat":"hafen","website":"https://www.wsg-arnis.de/","phone":"+49 4642 4421"},"geometry":{"type":"Point","coordinates":[9.93002,54.633423]}},{"type":"Feature","properties":{"name":"Wassersportverein Fleckeby","cat":"hafen","website":"https://wsf-fleckeby.de/","phone":"+49 4354 996855"},"geometry":{"type":"Point","coordinates":[9.697078,54.490543]}},{"type":"Feature","properties":{"name":"Wiking Yachthafen","cat":"hafen","website":"https://www.wiking-yachthafen.de/","phone":"+49 4621 35666"},"geometry":{"type":"Point","coordinates":[9.549343,54.507491]}},{"type":"Feature","properties":{"name":"Wiking-Haddeby","cat":"hafen","website":"http://www.wesselhoeft.net/Hafen/Hafen.htm"},"geometry":{"type":"Point","coordinates":[9.568694,54.502035]}},{"type":"Feature","properties":{"name":"Wikingerschänke","cat":"restaurant","website":"https://www.wikingerschaenke.de/","phone":"+49 4621 321 90","adresse":"Am Margarethenwall","ort":"Busdorf","zeiten":"Su 10:00-16:00; We-Sa 16:00++"},"geometry":{"type":"Point","coordinates":[9.541794,54.489244]}},{"type":"Feature","properties":{"name":"Wohnmobil Wiese Stutebüll","cat":"camping","adresse":"Stutebüll 17","ort":"Kappeln"},"geometry":{"type":"Point","coordinates":[9.924881,54.689087]}},{"type":"Feature","properties":{"name":"Wohnmobil-Stellplätze Wassersportgemeinschaft Arnis/Grödersby","cat":"camping","website":"https://wsg-arnis.de/fuer-gaeste/#womo","phone":"+49 4642 4421","adresse":"Friedenshöher Straße 21"},"geometry":{"type":"Point","coordinates":[9.929309,54.634408]}},{"type":"Feature","properties":{"name":"Wohnmobilstellplatz Ancker Yachting","cat":"camping","website":"https://ancker-yachting.de/wohnmobile/","phone":"+49 4642 1563","adresse":"Am Hafen 23a","ort":"Kappeln"},"geometry":{"type":"Point","coordinates":[9.936274,54.668114]}},{"type":"Feature","properties":{"name":"Wohnmobilstellplatz Stadthafen Schleswig","cat":"camping","website":"http://www.wohnmobilplatz-schleswig.de/","phone":"+49 4621 801450"},"geometry":{"type":"Point","coordinates":[9.568064,54.511759]}},{"type":"Feature","properties":{"name":"Wohnmobilstellplatz Tankstelle Kappeln","cat":"camping","website":"https://www.kappeln.de/Unsere-Stadt/F%C3%BCr-unsere-G%C3%A4ste/Wohnmobil-Camping/"},"geometry":{"type":"Point","coordinates":[9.944827,54.656902]}},{"type":"Feature","properties":{"name":"Yen-Yen","cat":"restaurant","cuisine":"vietnamese,thai,chinese","website":"https://www.yenyen-schleswig.de/","phone":"+49 4621 999585","adresse":"Gallberg 30","ort":"Schleswig","zeiten":"Mo,We-Su 11:30-14:30,17:30-21:30; Tu off"},"geometry":{"type":"Point","coordinates":[9.571043,54.517988]}},{"type":"Feature","properties":{"name":"Zander's Nordlicht","cat":"restaurant","cuisine":"fish · fish and chips","phone":"+49 4621 290207","adresse":"Am Hafen 1","ort":"Schleswig","zeiten":"Mo-Su 10:00-20:00"},"geometry":{"type":"Point","coordinates":[9.571333,54.511469]}},{"type":"Feature","properties":{"name":"Zeus","cat":"restaurant","cuisine":"greek","website":"https://www.zeus-kappeln.de/","phone":"+49 4642 9269112","adresse":"Flensburger Straße 4","ort":"Kappeln","zeiten":"Tu-Su 17:00-21:30; Mo off"},"geometry":{"type":"Point","coordinates":[9.926024,54.662535]}},{"type":"Feature","properties":{"name":"Zollhaus zu Gottorf","cat":"schlafen","website":"https://www.zollhaus-zu-gottorf.de/","phone":"+49 4621 290340","adresse":"Lollfuß 110","ort":"Schleswig"},"geometry":{"type":"Point","coordinates":[9.546405,54.512084]}},{"type":"Feature","properties":{"name":"Zum Dreimaster","cat":"imbiss","adresse":"Gallberg 33","ort":"Schleswig","zeiten":"Tu,Th 17:00-22:00; Fr 17:00-24:00; Sa,Su,Mo,We off"},"geometry":{"type":"Point","coordinates":[9.570305,54.518286]}},{"type":"Feature","properties":{"name":"Zur Schleibrücke","cat":"schlafen"},"geometry":{"type":"Point","coordinates":[9.817987,54.585936]}},{"type":"Feature","properties":{"name":"Zur Schleiperle","cat":"cafe","website":"https://www.schleiperle-arnis.de/","phone":"+49 4642 2085","adresse":"Strandweg 125","ort":"Arnis","zeiten":"We-Su 12:00-17:00; Mo,Tu off"},"geometry":{"type":"Point","coordinates":[9.932656,54.628826]}},{"type":"Feature","properties":{"name":"die!kantine","cat":"restaurant","phone":"+49 4621 9946030","adresse":"Heinrich-Hertz-Straße 19","ort":"Schleswig","zeiten":"Mo-Th 11:30-13:00"},"geometry":{"type":"Point","coordinates":[9.583841,54.536694]}},{"type":"Feature","properties":{"name":"klähblatt Pub","cat":"imbiss","website":"http://www.klähblatt.de","phone":"+49 4621 3077570","adresse":"Lollfuß 46","ort":"Schleswig","zeiten":"Tu-Sa 18:00+; Su,Mo off"},"geometry":{"type":"Point","coordinates":[9.553595,54.51493]}},{"type":"Feature","properties":{"name":"von Allwörden","cat":"cafe","zeiten":"Mo-Sa 08:00-19:00"},"geometry":{"type":"Point","coordinates":[9.527508,54.529401]}},{"type":"Feature","properties":{"name":"Épinard","cat":"restaurant","website":"http://www.epinard.de/","phone":"+49 4354 996356","adresse":"Kreisstraße 13","ort":"Borgwedel","zeiten":"Th-Su 17:00+"},"geometry":{"type":"Point","coordinates":[9.658768,54.493675]}}]}