{"type":"FeatureCollection","features":[{"type":"Feature","properties":{"id":"1-weltkrieg","name":"1. Weltkrieg","cat":"denkmal","kulturdenkmal":true,"kulturdenkmal_text":"Baudenkmal: Wohnhaus"},"geometry":{"type":"Point","coordinates":[9.574287,54.512496]}},{"type":"Feature","properties":{"id":"3-d-incident-version-1","name":"3-D Incident Version 1","cat":"denkmal","kulturdenkmal":true,"kulturdenkmal_text":"Gründenkmal (Fläche): fünf Terrassen"},"geometry":{"type":"Point","coordinates":[9.539942,54.518472]}},{"type":"Feature","properties":{"id":"adventgemeinde-schleswig","name":"Adventgemeinde Schleswig","cat":"kirche","website":"https://www.adventisten.de/kirche-vor-ort/adventgemeinde/lo/schleswig/"},"geometry":{"type":"Point","coordinates":[9.545893,54.51703]}},{"type":"Feature","properties":{"id":"ahmadiyya-muslim-jamaat","name":"Ahmadiyya Muslim Jamaat","cat":"kirche"},"geometry":{"type":"Point","coordinates":[9.54319,54.499713]}},{"type":"Feature","properties":{"id":"amanda","name":"Amanda","cat":"technik","wikidata":"Q12301255","wikipedia":"de:Mühle Amanda","text":"Die Galerieholländermühle Amanda von 1888 ist Kappelns Wahrzeichen und eine der schönsten Mühlen der Region.","text_source":"Redaktion dieschlei.de","wiki_url":"https://de.wikipedia.org/wiki/M%C3%BChle_Amanda","kulturdenkmal":true,"kulturdenkmal_text":"Baudenkmal: Windmühle","highlight":true},"geometry":{"type":"Point","coordinates":[9.926117,54.660925]}},{"type":"Feature","properties":{"id":"angelner-dampfeisenbahn","name":"Angelner Dampfeisenbahn","cat":"museum","website":"https://www.angelner-dampfeisenbahn.de/"},"geometry":{"type":"Point","coordinates":[9.9346,54.658137]}},{"type":"Feature","properties":{"id":"ansgar-memoria","name":"Ansgar Memoria","cat":"denkmal","wikidata":"Q94694558"},"geometry":{"type":"Point","coordinates":[9.570645,54.499539]}},{"type":"Feature","properties":{"id":"archaeologisches-landesamt-schleswig-holstein","name":"Archäologisches Landesamt Schleswig-Holstein","cat":"schloss","wikidata":"Q58402042","wikipedia":"da:Annettehøj","website":"http://www.alsh.de/","text":"Annettehøj (dansk) eller Annettenhöh (tysk) er navnet på en bakke i den sydvestlige udkant af Slesvig by og navnet på en herregård på selve bakken.","text_source":"Wikipedia (CC BY-SA 4.0)","wiki_url":"https://da.wikipedia.org/wiki/Annetteh%C3%B8j","img":"https://upload.wikimedia.org/wikipedia/commons/thumb/c/c4/Annettenh%C3%B6h_Schleswig.jpg/330px-Annettenh%C3%B6h_Schleswig.jpg","img_credit":"HERRMICHA3L","img_license":"CC BY-SA 4.0","kulturdenkmal":true,"kulturdenkmal_text":"Baudenkmal: Schloß Annettenhöh"},"geometry":{"type":"Point","coordinates":[9.524729,54.506241]}},{"type":"Feature","properties":{"id":"arnis","name":"Arnis","cat":"denkmal","text":"Mit rund 300 Einwohnern die kleinste Stadt Deutschlands, 1667 von Glaubensflüchtlingen gegründet. Die schmale Schifferstadt reiht Kapitänshäuser und die barocke Schifferkirche entlang einer einzigen Halbinsel in der Schlei.","text_source":"Redaktion dieschlei.de","highlight":true,"wiki_url":"https://de.wikipedia.org/wiki/Arnis"},"geometry":{"type":"Point","coordinates":[9.9339,54.6297]}},{"type":"Feature","properties":{"id":"auferstehungskirche","name":"Auferstehungskirche","cat":"kirche"},"geometry":{"type":"Point","coordinates":[9.538122,54.524442]}},{"type":"Feature","properties":{"id":"auferstehungskirche-2","name":"Auferstehungskirche","cat":"kirche","kulturdenkmal":true,"kulturdenkmal_text":"Baudenkmal: Auferstehungskirche mit Ausstattung"},"geometry":{"type":"Point","coordinates":[9.948038,54.661909]}},{"type":"Feature","properties":{"id":"aussichtsturm-schleswig","name":"Aussichtsturm Schleswig","cat":"denkmal","wikidata":"Q105282061"},"geometry":{"type":"Point","coordinates":[9.561907,54.513358]}},{"type":"Feature","properties":{"id":"automuseum-collection-schwansen","name":"Automuseum Collection Schwansen","cat":"museum","website":"https://collection-schwansen.de/"},"geometry":{"type":"Point","coordinates":[9.903617,54.58362]}},{"type":"Feature","properties":{"id":"befreiungsdenkmal","name":"Befreiungsdenkmal","cat":"denkmal","kulturdenkmal":true,"kulturdenkmal_text":"Baudenkmal: Gasthaus \"Stadt Flensburg\""},"geometry":{"type":"Point","coordinates":[9.547209,54.512666]}},{"type":"Feature","properties":{"id":"bellmann-chemnitz","name":"Bellmann Chemnitz","cat":"denkmal","kulturdenkmal":true,"kulturdenkmal_text":"Baudenkmal: Chemnitz-Bellmann-Denkmal"},"geometry":{"type":"Point","coordinates":[9.551367,54.516239]}},{"type":"Feature","properties":{"id":"brueggemann-altar","name":"Brüggemann Altar","cat":"denkmal","kulturdenkmal":true,"kulturdenkmal_text":"Baudenkmal: Fürstengruft"},"geometry":{"type":"Point","coordinates":[9.569754,54.513727]}},{"type":"Feature","properties":{"id":"camii","name":"Camii","cat":"kirche"},"geometry":{"type":"Point","coordinates":[9.54103,54.504638]}},{"type":"Feature","properties":{"id":"danevirke-museum","name":"Danevirke Museum","cat":"museum","wikidata":"Q1159481","wikipedia":"da:Danevirke Museum","website":"https://www.danevirkemuseum.de","text":"Das Danevirke Museum, inoffiziell auch Danewerkmuseum genannt, dokumentiert die Geschichte des Danewerks. Das Museum wird von der Vereinigung der dänischen Minderheit in Südschleswig betrieben. Das Danewerk war ein ausgedehnter Komplex dänischer Grenzbefestigungen, der im Frühmittelalter in mehreren Bauphasen geschaffen wurde.","text_source":"Wikipedia (CC BY-SA 4.0)","wiki_url":"https://de.wikipedia.org/wiki/Danevirke_Museum","img":"https://upload.wikimedia.org/wikipedia/commons/thumb/1/1a/Dannewerk_-_Ochsenweg_-_Ochsenweg_-_Danevirke_Museum_05_ies.jpg/330px-Dannewerk_-_Ochsenweg_-_Ochsenweg_-_Danevirke_Museum_05_ies.jpg","img_credit":"Frank Vincentz","img_license":"CC BY-SA 3.0"},"geometry":{"type":"Point","coordinates":[9.500209,54.483068]}},{"type":"Feature","properties":{"id":"danewerk","name":"Danewerk","cat":"wikinger","wikipedia":"de:Danewerk","text":"Das größte Bodendenkmal Nordeuropas — ein über Jahrhunderte ausgebautes Wallsystem quer über die Kimbrische Halbinsel. Gemeinsam mit Haithabu seit 2018 UNESCO-Welterbe.","text_source":"Redaktion dieschlei.de","wiki_url":"https://de.wikipedia.org/wiki/Danewerk","img":"https://upload.wikimedia.org/wikipedia/commons/thumb/2/23/Danewerk_waelle.jpg/330px-Danewerk_waelle.jpg","img_credit":"Willi Kramer","img_license":"CC BY-SA 3.0 de","highlight":true},"geometry":{"type":"Point","coordinates":[9.418851,54.46009]}},{"type":"Feature","properties":{"id":"danewerk-2","name":"Danewerk","cat":"wikinger"},"geometry":{"type":"Point","coordinates":[9.47647,54.471656]}},{"type":"Feature","properties":{"id":"danewerk-3","name":"Danewerk","cat":"wikinger","wikidata":"Q689454","wikipedia":"de:Danewerk","text":"Das Danewerk ist ein komplexes System dänischer Grenzbefestigungen, das im Frühmittelalter zur Sicherung der dänischen Südgrenze geschaffen wurde und sich im heutigen nördlichen Schleswig-Holstein befindet. Es besteht hauptsächlich aus Wällen mit Wehrgräben und dem Schlei-Seesperrwerk. Die meisten Wälle wurden zwischen der Schlei im Osten, der Treene im Westen und der Rheider Au im Süden angelegt. Mit ihnen ließ sich die nur 17 Kilometer breite Schleswiger Landenge zwischen der Schlei und der Treene kontrollieren.","text_source":"Wikipedia (CC BY-SA 4.0)","wiki_url":"https://de.wikipedia.org/wiki/Danewerk","img":"https://upload.wikimedia.org/wikipedia/commons/thumb/2/23/Danewerk_waelle.jpg/330px-Danewerk_waelle.jpg","img_credit":"Willi Kramer","img_license":"CC BY-SA 3.0 de"},"geometry":{"type":"Point","coordinates":[9.468311,54.473409]}},{"type":"Feature","properties":{"id":"danewerk-4","name":"Danewerk","cat":"wikinger","wikidata":"Q8508502","wikipedia":"de:Danewerk","text":"Das Danewerk ist ein komplexes System dänischer Grenzbefestigungen, das im Frühmittelalter zur Sicherung der dänischen Südgrenze geschaffen wurde und sich im heutigen nördlichen Schleswig-Holstein befindet. Es besteht hauptsächlich aus Wällen mit Wehrgräben und dem Schlei-Seesperrwerk. Die meisten Wälle wurden zwischen der Schlei im Osten, der Treene im Westen und der Rheider Au im Süden angelegt. Mit ihnen ließ sich die nur 17 Kilometer breite Schleswiger Landenge zwischen der Schlei und der Treene kontrollieren.","text_source":"Wikipedia (CC BY-SA 4.0)","wiki_url":"https://de.wikipedia.org/wiki/Danewerk","img":"https://upload.wikimedia.org/wikipedia/commons/thumb/2/23/Danewerk_waelle.jpg/330px-Danewerk_waelle.jpg","img_credit":"Willi Kramer","img_license":"CC BY-SA 3.0 de"},"geometry":{"type":"Point","coordinates":[9.496253,54.482281]}},{"type":"Feature","properties":{"id":"das-schleswig-holsteinsche-draconer-regiment-o-13","name":"Das Schleswig-Holsteinsche Draconer-Regiment № 13","cat":"denkmal","kulturdenkmal":true,"kulturdenkmal_text":"Baudenkmal: Gedenkkapelle"},"geometry":{"type":"Point","coordinates":[9.543061,54.52008]}},{"type":"Feature","properties":{"id":"denkmal-fuer-die-gefallenen-beider-weltkriege","name":"Denkmal für die Gefallenen beider Weltkriege","cat":"denkmal","kulturdenkmal":true,"kulturdenkmal_text":"Baudenkmal: Kirche St. Petri mit Ausstattung"},"geometry":{"type":"Point","coordinates":[9.989227,54.6833]}},{"type":"Feature","properties":{"id":"denkmal-fuer-die-kaiser-wilhelm-i-und-friedrich-iii","name":"Denkmal für die Kaiser Wilhelm I und Friedrich III","cat":"denkmal","kulturdenkmal":true,"kulturdenkmal_text":"Gründenkmal (Fläche): Kirchhof"},"geometry":{"type":"Point","coordinates":[9.933624,54.661816]}},{"type":"Feature","properties":{"id":"denkmal-zur-erinnerung-an-der-deutsch-franzoesischen-krieg-1870-71","name":"Denkmal zur Erinnerung an der Deutsch-Französischen Krieg 1870/71","cat":"denkmal","kulturdenkmal":true,"kulturdenkmal_text":"Gründenkmal: Doppeleiche"},"geometry":{"type":"Point","coordinates":[9.933647,54.661439]}},{"type":"Feature","properties":{"id":"der-fischer","name":"Der Fischer","cat":"denkmal","kulturdenkmal":true,"kulturdenkmal_text":"Baudenkmal: Bischofshof"},"geometry":{"type":"Point","coordinates":[9.56709,54.513579]}},{"type":"Feature","properties":{"id":"der-gehenkte","name":"Der Gehenkte","cat":"denkmal","wikidata":"Q130478127","kulturdenkmal":true,"kulturdenkmal_text":"Baudenkmal: Mahnmal \"Der Gehenkte\""},"geometry":{"type":"Point","coordinates":[9.54156,54.508299]}},{"type":"Feature","properties":{"id":"desdemona","name":"Desdemona","cat":"denkmal","kulturdenkmal":true,"kulturdenkmal_text":"Baudenkmal: ehem. Waffenschmiede"},"geometry":{"type":"Point","coordinates":[9.541484,54.512676]}},{"type":"Feature","properties":{"id":"dorfmuseum","name":"Dorfmuseum","cat":"museum","wikidata":"Q76638679"},"geometry":{"type":"Point","coordinates":[9.705637,54.536611]}},{"type":"Feature","properties":{"id":"dorfmuseum-ulsnis","name":"Dorfmuseum Ulsnis","cat":"museum","wikidata":"Q76639001","website":"https://www.museen-sh.de/Museum/DE-MUS-744418"},"geometry":{"type":"Point","coordinates":[9.74838,54.569053]}},{"type":"Feature","properties":{"id":"dreifaltigkeitskirche","name":"Dreifaltigkeitskirche","cat":"kirche","wikidata":"Q55088525","wikipedia":"de:Dreifaltigkeitskirche (Schleswig)","text":"Die Dreifaltigkeitskirche ist die evangelisch-lutherische Kirche des Schleswiger Stadtteils Friedrichsberg. Sie gehört zur Kirchengemeinde Schleswig im Kirchenkreis Schleswig-Flensburg innerhalb der evangelisch-lutherischen Kirche in Norddeutschland.","text_source":"Wikipedia (CC BY-SA 4.0)","wiki_url":"https://de.wikipedia.org/wiki/Dreifaltigkeitskirche_(Schleswig)","img":"https://upload.wikimedia.org/wikipedia/commons/thumb/a/af/110403_Schleswig-Friedrichsberg_Dreifaltugkeitskirche_1.jpg/330px-110403_Schleswig-Friedrichsberg_Dreifaltugkeitskirche_1.jpg","img_credit":"Uwe Barghaan","img_license":"CC BY-SA 4.0","kulturdenkmal":true,"kulturdenkmal_text":"Baudenkmal: Dreifaltigkeitskirche"},"geometry":{"type":"Point","coordinates":[9.543897,54.501165]}},{"type":"Feature","properties":{"id":"dyrill","name":"Dyrill","cat":"denkmal","kulturdenkmal":true,"kulturdenkmal_text":"Gründenkmal (Fläche): fünf Terrassen"},"geometry":{"type":"Point","coordinates":[9.540677,54.518428]}},{"type":"Feature","properties":{"id":"erikstein","name":"Erikstein","cat":"wikinger","wikidata":"Q873042","wikipedia":"de:Runensteine von Haithabu","website":"http://www.suehnekreuz.de/holstein/wedelspang.htm#1","text":"Die Runensteine von Haithabu stellen wertvolle historische Urkunden dar, deren Bedeutung darin liegt, dass die Frühgeschichte im südlichen Dänemark aus der Zeit vor und nach der dänischen Reichseinigung mit realen Ereignissen verbunden werden kann. Der Sinn von Runensteinen ist es, der Nachwelt die Erinnerung an bedeutende Männer zu überliefern. Die Aufrichtung solcher Gedenksteine beschränkt sich deshalb auf einen sozial abgehobenen Kreis. Die vier auf die Stadt Haithabu zu beziehenden Runensteine sind im Wikinger Museum Haithabu ausgestellt und werden in zwei Gruppen eingeteilt, die „Sigtryggsteine“ und die „Svensteine“.","text_source":"Wikipedia (CC BY-SA 4.0)","wiki_url":"https://de.wikipedia.org/wiki/Runensteine_von_Haithabu"},"geometry":{"type":"Point","coordinates":[9.563725,54.484682]}},{"type":"Feature","properties":{"id":"erscheinung","name":"Erscheinung","cat":"denkmal","kulturdenkmal":true,"kulturdenkmal_text":"Baudenkmal: Schloss Gottorf"},"geometry":{"type":"Point","coordinates":[9.540751,54.512329]}},{"type":"Feature","properties":{"id":"eva-und-ihre-kinder","name":"Eva und ihre Kinder","cat":"denkmal","kulturdenkmal":true,"kulturdenkmal_text":"Baudenkmal: Schloss Gottorf"},"geometry":{"type":"Point","coordinates":[9.540445,54.512229]}},{"type":"Feature","properties":{"id":"evangelisch-freikirchliche-gemeinde-baptisten","name":"Evangelisch-Freikirchliche Gemeinde (Baptisten)","cat":"kirche"},"geometry":{"type":"Point","coordinates":[9.926779,54.658665]}},{"type":"Feature","properties":{"id":"evangelisch-freikirchliche-gemeinde-schleswig","name":"Evangelisch-Freikirchliche Gemeinde Schleswig","cat":"kirche","wikidata":"Q137767394","website":"https://www.efg-schleswig.de"},"geometry":{"type":"Point","coordinates":[9.557489,54.515851]}},{"type":"Feature","properties":{"id":"fernsehturm-schleswig-stadt","name":"Fernsehturm Schleswig-Stadt","cat":"denkmal","wikidata":"Q1363849","text":"Der Fernmeldeturm Schleswig ist ein 137 Meter hoher, für die Öffentlichkeit nicht zugänglicher Fernmeldeturm im Nordwesten von Schleswig. Er dient neben dem Richtfunk auch zur Verbreitung von Fernseh-(DVB-T) und Hörfunkprogrammen. Darüber hinaus wird er als Basisstation für Mobilfunk genutzt.","text_source":"Wikipedia (CC BY-SA 4.0)","wiki_url":"https://de.wikipedia.org/wiki/Fernmeldeturm_Schleswig","img":"https://upload.wikimedia.org/wikipedia/commons/thumb/4/4b/Schliekieker.png/330px-Schliekieker.png","img_credit":"Sven Hagge","img_license":"CC BY-SA 3.0"},"geometry":{"type":"Point","coordinates":[9.529105,54.527791]}},{"type":"Feature","properties":{"id":"fischer","name":"Fischer","cat":"denkmal","wikidata":"Q113620328"},"geometry":{"type":"Point","coordinates":[9.934279,54.659501]}},{"type":"Feature","properties":{"id":"flensburger-venus","name":"Flensburger Venus","cat":"denkmal","kulturdenkmal":true,"kulturdenkmal_text":"Baudenkmal: Schloss Gottorf"},"geometry":{"type":"Point","coordinates":[9.541139,54.512422]}},{"type":"Feature","properties":{"id":"freiluftwaldkapelle-st-hugin-munin","name":"Freiluftwaldkapelle St.Hugin Munin","cat":"kirche"},"geometry":{"type":"Point","coordinates":[9.525628,54.510766]}},{"type":"Feature","properties":{"id":"freimaurerturm","name":"Freimaurerturm","cat":"denkmal","kulturdenkmal":true,"kulturdenkmal_text":"Baudenkmal: ehem. Freimaurerturm"},"geometry":{"type":"Point","coordinates":[9.680573,54.494052]}},{"type":"Feature","properties":{"id":"freyja","name":"Freyja","cat":"denkmal","kulturdenkmal":true,"kulturdenkmal_text":"Mehrheit von baulichen Anlagen: Mehrheit baulicher Anlagen: Wohn- und Geschäftshäuser Lollfuß 48-56"},"geometry":{"type":"Point","coordinates":[9.553358,54.514762]}},{"type":"Feature","properties":{"id":"friedhofskapelle-und-friedhofstor","name":"Friedhofskapelle und Friedhofstor","cat":"kirche","wikidata":"Q58399463","kulturdenkmal":true,"kulturdenkmal_text":"Baudenkmal: Friedhofskapelle mit Ausstattung"},"geometry":{"type":"Point","coordinates":[9.927778,54.662377]}},{"type":"Feature","properties":{"id":"galerie-der-klassischen-moderne","name":"Galerie der klassischen Moderne","cat":"museum","website":"https://museum-fuer-kunst-und-kulturgeschichte.de/de/galerie-der-moderne","kulturdenkmal":true,"kulturdenkmal_text":"Gründenkmal (Fläche): Schlossinsel"},"geometry":{"type":"Point","coordinates":[9.541842,54.511664]}},{"type":"Feature","properties":{"id":"gedenkstein-aufhebung-leibeigenschaft","name":"Gedenkstein Aufhebung Leibeigenschaft","cat":"denkmal","kulturdenkmal":true,"kulturdenkmal_text":"Baudenkmal: Kirchhofspforte"},"geometry":{"type":"Point","coordinates":[9.975151,54.623193]}},{"type":"Feature","properties":{"id":"gefallene-daenen-und-preussen-1850","name":"Gefallene Dänen und Preußen 1850","cat":"denkmal","kulturdenkmal":true,"kulturdenkmal_text":"Sachgesamtheit: Sachgesamtheit: Kirche St. Andreas"},"geometry":{"type":"Point","coordinates":[9.707715,54.534689]}},{"type":"Feature","properties":{"id":"gemeinschaft-in-der-evangelischen-kirche","name":"Gemeinschaft in der Evangelischen Kirche","cat":"kirche"},"geometry":{"type":"Point","coordinates":[9.796559,54.593363]}},{"type":"Feature","properties":{"id":"globushaus","name":"Globushaus","cat":"museum","wikidata":"Q535891","wikipedia":"de:Gottorfer Riesenglobus","text":"Der Gottorfer Riesenglobus ist ein begehbarer Globus, der ursprünglich im Garten des Gottorfer Schlosses bei Schleswig aufgestellt war und 1717 an den Zar Peter den Großen verschenkt wurde. Er befindet sich heute in der Kunstkammer in Sankt Petersburg. Seit 2005 gibt es im Park des Gottorfer Schlosses wieder einen Nachbau des Originals, und dafür wurde auch ein neues Globushaus errichtet. Das alte Globushaus war bereits im 18. Jahrhundert abgebrochen worden.","text_source":"Wikipedia (CC BY-SA 4.0)","wiki_url":"https://de.wikipedia.org/wiki/Gottorfer_Riesenglobus","img":"https://upload.wikimedia.org/wikipedia/commons/thumb/6/6a/Gottdorfer_Riesenglobus_100_1231.jpg/330px-Gottdorfer_Riesenglobus_100_1231.jpg","img_credit":"Commander-pirx at de.wikipedia","img_license":"CC BY-SA 3.0","kulturdenkmal":true,"kulturdenkmal_text":"Gründenkmal (Fläche): Globusgarten"},"geometry":{"type":"Point","coordinates":[9.54015,54.517649]}},{"type":"Feature","properties":{"id":"goldwaescherin","name":"Goldwäscherin","cat":"denkmal","kulturdenkmal":true,"kulturdenkmal_text":"Baudenkmal: Wachhaus"},"geometry":{"type":"Point","coordinates":[9.541417,54.511038]}},{"type":"Feature","properties":{"id":"grosser-sigtryggstein","name":"Großer Sigtryggstein","cat":"wikinger","wikidata":"Q101479010","wikipedia":"de:Runensteine von Haithabu","website":"http://www.suehnekreuz.de/holstein/wedelspang.htm#2","text":"Die Runensteine von Haithabu stellen wertvolle historische Urkunden dar, deren Bedeutung darin liegt, dass die Frühgeschichte im südlichen Dänemark aus der Zeit vor und nach der dänischen Reichseinigung mit realen Ereignissen verbunden werden kann. Der Sinn von Runensteinen ist es, der Nachwelt die Erinnerung an bedeutende Männer zu überliefern. Die Aufrichtung solcher Gedenksteine beschränkt sich deshalb auf einen sozial abgehobenen Kreis. Die vier auf die Stadt Haithabu zu beziehenden Runensteine sind im Wikinger Museum Haithabu ausgestellt und werden in zwei Gruppen eingeteilt, die „Sigtryggsteine“ und die „Svensteine“.","text_source":"Wikipedia (CC BY-SA 4.0)","wiki_url":"https://de.wikipedia.org/wiki/Runensteine_von_Haithabu"},"geometry":{"type":"Point","coordinates":[9.574597,54.485075]}},{"type":"Feature","properties":{"id":"grosssteingrab-buestorf-4","name":"Großsteingrab Büstorf 4","cat":"wikinger","wikidata":"Q64995111","wikipedia":"de:Großsteingräber bei Büstorf","text":"Die Großsteingräber bei Büstorf sind eine Gruppe von vier megalithischen Grabanlagen der jungsteinzeitlichen Trichterbecherkultur bei Büstorf, einem Ortsteil von Rieseby im Kreis Rendsburg-Eckernförde in Schleswig-Holstein. Sie tragen die Sprockhoff-Nummern 50–53.","text_source":"Wikipedia (CC BY-SA 4.0)","wiki_url":"https://de.wikipedia.org/wiki/Gro%C3%9Fsteingr%C3%A4ber_bei_B%C3%BCstorf"},"geometry":{"type":"Point","coordinates":[9.803561,54.559406]}},{"type":"Feature","properties":{"id":"grosssteingrab-gammelby-eichtal-1","name":"Großsteingrab Gammelby-Eichtal 1","cat":"wikinger","wikidata":"Q65237343","wikipedia":"de:Großsteingräber bei Gammelby-Eichtal","text":"Die Großsteingräber bei Gammelby-Eichtal waren ursprünglich wahrscheinlich drei megalithische Grabanlagen der jungsteinzeitlichen Trichterbecherkultur bei dem zur Gemeinde Gammelby gehörenden Gut Eichtal im Kreis Rendsburg-Eckernförde in Schleswig-Holstein. Von diesen existiert heute nur noch eines. Es trägt die Sprockhoff-Nummer 55. Das erhaltene Grab und die Reste eines zerstörten Grabes wurden 1950 und 1951 von Hans Hingst und Peter La Baume archäologisch untersucht.","text_source":"Wikipedia (CC BY-SA 4.0)","wiki_url":"https://de.wikipedia.org/wiki/Gro%C3%9Fsteingr%C3%A4ber_bei_Gammelby-Eichtal"},"geometry":{"type":"Point","coordinates":[9.793167,54.507476]}},{"type":"Feature","properties":{"id":"grosssteingrab-missunde","name":"Großsteingrab Missunde","cat":"wikinger","wikidata":"Q1493475","wikipedia":"de:Ganggrab von Missunde","text":"Das Ganggrab von Missunde liegt etwa 100 m südlich des Ortes Missunde im Kreis Eckernförde in Schleswig-Holstein innerhalb der Gedenkstätte für die Gefallenen des Gefechts von Missunde. Die Missunder Megalithanlage ist in Schleswig-Holstein für Ganggräber mit trapezoidem Grundriss im Rundhügel charakteristisch. Großsteingräber dieser Form kommen ansonsten in Mecklenburg-Vorpommern und Skandinavien vor. Die Anlage der Trichterbecherkultur (TBK) entstand zwischen 3500 und 2800 v. Chr. Das Ganggrab ist eine Bauform jungsteinzeitlicher Megalithanlagen, die aus einer Kammer und einem baulich abgesetzten, lateralen Gang besteht. Diese Form ist primär in Dänemark, Deutschland und Skandinavien, sowie vereinzelt in Frankreich und den Niederlanden zu finden.","text_source":"Wikipedia (CC BY-SA 4.0)","wiki_url":"https://de.wikipedia.org/wiki/Ganggrab_von_Missunde","img":"https://upload.wikimedia.org/wikipedia/commons/thumb/1/16/Missunde-Ganggrab-1.jpg/330px-Missunde-Ganggrab-1.jpg","img_credit":"Holger rix","img_license":"CC BY-SA 3.0"},"geometry":{"type":"Point","coordinates":[9.721265,54.519592]}},{"type":"Feature","properties":{"id":"grosssteingrab-olpenitz","name":"Großsteingrab Olpenitz","cat":"wikinger","wikidata":"Q1652319","wikipedia":"de:Hünenbett Olpenitz","text":"Das Hünenbett Olpenitz befindet sich südlich der Schleimündung in 100 m Entfernung vom Ostrand des Waldstücks Kühlen. Olpenitz gehört zur Stadt Kappeln im Kreis Schleswig-Flensburg in Schleswig-Holstein.","text_source":"Wikipedia (CC BY-SA 4.0)","wiki_url":"https://de.wikipedia.org/wiki/H%C3%BCnenbett_Olpenitz","img":"https://upload.wikimedia.org/wikipedia/commons/thumb/6/6b/Olpenitz-Huenengrab-b.jpg/330px-Olpenitz-Huenengrab-b.jpg","img_credit":"Holger rix","img_license":"CC BY-SA 3.0"},"geometry":{"type":"Point","coordinates":[10.002285,54.65225]}},{"type":"Feature","properties":{"id":"gruntal","name":"Gruntal","cat":"schloss"},"geometry":{"type":"Point","coordinates":[9.971488,54.594097]}},{"type":"Feature","properties":{"id":"groedersby-muehle","name":"Grödersby Mühle","cat":"technik","kulturdenkmal":true,"kulturdenkmal_text":"Baudenkmal: Windmühle"},"geometry":{"type":"Point","coordinates":[9.907394,54.635224]}},{"type":"Feature","properties":{"id":"gut-oehe","name":"Gut Oehe","cat":"schloss","wikidata":"Q113145387","kulturdenkmal":true,"kulturdenkmal_text":"Baudenkmal: Herrenhaus"},"geometry":{"type":"Point","coordinates":[10.002979,54.707076]}},{"type":"Feature","properties":{"id":"gut-priesholz","name":"Gut Priesholz","cat":"schloss","wikidata":"Q58396258","kulturdenkmal":true,"kulturdenkmal_text":"Baudenkmal: Herrenhaus"},"geometry":{"type":"Point","coordinates":[9.913134,54.702959]}},{"type":"Feature","properties":{"id":"haddebyer-museumshof","name":"Haddebyer Museumshof","cat":"museum","website":"https://www.busdorf-geschichtsverein.de/seite/776863/vorstellung.html","kulturdenkmal":true,"kulturdenkmal_text":"Baudenkmal: Wassermühle"},"geometry":{"type":"Point","coordinates":[9.581198,54.471444]}},{"type":"Feature","properties":{"id":"haithabu","name":"Haithabu","cat":"wikinger","wikidata":"Q165414","wikipedia":"de:Haithabu","text":"Bedeutendste Wikinger-Handelsmetropole Nordeuropas und seit 2018 UNESCO-Welterbe. Der halbkreisförmige Ringwall am Haddebyer Noor und das benachbarte Wikinger Museum machen die Epoche greifbar.","text_source":"Redaktion dieschlei.de","wiki_url":"https://de.wikipedia.org/wiki/Haithabu","img":"https://upload.wikimedia.org/wikipedia/commons/thumb/3/3e/Wikingerhaeuser_Haithabu.jpg/330px-Wikingerhaeuser_Haithabu.jpg","img_credit":"Kai-Erik Ballak","img_license":"CC BY-SA 3.0","highlight":true},"geometry":{"type":"Point","coordinates":[9.567019,54.49125]}},{"type":"Feature","properties":{"id":"heimatmuseum-rieseby","name":"Heimatmuseum Rieseby","cat":"museum","kulturdenkmal":true,"kulturdenkmal_text":"Baudenkmal: Windmühle \"Anna\""},"geometry":{"type":"Point","coordinates":[9.803325,54.543092]}},{"type":"Feature","properties":{"id":"heringszaun-kappeln","name":"Heringszaun Kappeln","cat":"denkmal","kulturdenkmal":true,"kulturdenkmal_text":"Baudenkmal: Heringszaun","text":"Die letzte funktionsfähige Reusenanlage ihrer Art in Europa — ein technisches Kulturdenkmal mitten in Kappeln.","text_source":"Redaktion dieschlei.de","highlight":true},"geometry":{"type":"Point","coordinates":[9.937134,54.661037]}},{"type":"Feature","properties":{"id":"herkulesgruppe","name":"Herkulesgruppe","cat":"denkmal","kulturdenkmal":true,"kulturdenkmal_text":"Baudenkmal: Herkulesgruppe im Neuwerkgarten"},"geometry":{"type":"Point","coordinates":[9.540022,54.516878]}},{"type":"Feature","properties":{"id":"herrenhaus-bienebek","name":"Herrenhaus Bienebek","cat":"schloss","kulturdenkmal":true,"kulturdenkmal_text":"Baudenkmal: Herrenhaus"},"geometry":{"type":"Point","coordinates":[9.887833,54.603265]}},{"type":"Feature","properties":{"id":"herrenhaus-gut-stubbe","name":"Herrenhaus Gut Stubbe","cat":"schloss","wikidata":"Q28197590","wikipedia":"de:Gut Stubbe","text":"Das Gut Stubbe ist ein Gut in der Gemeinde Rieseby in der Landschaft Schwansen in Schleswig-Holstein.","text_source":"Wikipedia (CC BY-SA 4.0)","wiki_url":"https://de.wikipedia.org/wiki/Gut_Stubbe","img":"https://upload.wikimedia.org/wikipedia/commons/thumb/8/8f/Rieseby_Stubbe_5294.jpg/330px-Rieseby_Stubbe_5294.jpg","img_credit":"Pelz","img_license":"CC BY-SA 3.0","kulturdenkmal":true,"kulturdenkmal_text":"Baudenkmal: Herrenhaus"},"geometry":{"type":"Point","coordinates":[9.821549,54.576156]}},{"type":"Feature","properties":{"id":"herrenhaus-karlsburg","name":"Herrenhaus Karlsburg","cat":"schloss","wikidata":"Q1444760","wikipedia":"de:Herrenhaus Carlsburg","text":"Das Herrenhaus Carlsburg ist das bedeutendste Gebäude innerhalb einer Gutshofanlage mit mehreren Bauwerken in der Siedlung Karlsburg, bereits 1335 als Gereby erwähnt und 1807 in Karlsburg umbenannt. Das Herrenhaus Carlsburg gehört als Mittelpunkt des einstigen Adligen Guts Gereby zu den wesentlichen Kulturdenkmalen der Gemeinde Winnemark im Amt Schwansen im nördlichen Schleswig-Holstein. Das auch als Schloss Carlsburg bekannte Gebäude war unter anderem im Besitz der Herzöge von Schleswig-Holstein-Sonderburg-Glücksburg und befindet sich heute in Privatbesitz. Es handelt sich um ein Landschloss mit Festsaal, 25 Wohnungen, mehreren Büros und einem Café.","text_source":"Wikipedia (CC BY-SA 4.0)","wiki_url":"https://de.wikipedia.org/wiki/Herrenhaus_Carlsburg","img":"https://upload.wikimedia.org/wikipedia/commons/thumb/0/08/Herrenhaus_Carlsburg_bzw_Schloss_Karlsburg_-_bis_1807_Gut_Gereby_-_om_Ort_Karlsburg_Winnemark_Schlei_Schleswig-Holstein_-_Foto_Wolfgang_Pehlemann_DSC07467.jpg/330px-Herrenhaus_Carlsburg_bzw_Schloss_Karlsburg_-_bis_1807_Gut_Gereby_-_om_Ort_Karlsburg_Winnemark_Schlei_Schleswig-Holstein_-_Foto_Wolfgang_Pehlemann_DSC07467.jpg","img_credit":"Wolfgang Pehlemann","img_license":"CC BY-SA 3.0 de","kulturdenkmal":true,"kulturdenkmal_text":"Baudenkmal: Herrenhaus"},"geometry":{"type":"Point","coordinates":[9.952701,54.618324]}},{"type":"Feature","properties":{"id":"historisches-saegewerk","name":"Historisches Sägewerk","cat":"museum","kulturdenkmal":true,"kulturdenkmal_text":"Baudenkmal: Sägewerk"},"geometry":{"type":"Point","coordinates":[9.926188,54.661026]}},{"type":"Feature","properties":{"id":"holm-museum","name":"Holm-Museum","cat":"museum","wikidata":"Q76638957","kulturdenkmal":true,"kulturdenkmal_text":"Baudenkmal: Wohnhaus"},"geometry":{"type":"Point","coordinates":[9.573522,54.512988]}},{"type":"Feature","properties":{"id":"juergensburg","name":"Jürgensburg","cat":"wikinger"},"geometry":{"type":"Point","coordinates":[9.562514,54.508105]}},{"type":"Feature","properties":{"id":"kapelle-friedhof-holm","name":"Kapelle Friedhof Holm","cat":"kirche","wikidata":"Q58402379","kulturdenkmal":true,"kulturdenkmal_text":"Baudenkmal: Friedhofskapelle"},"geometry":{"type":"Point","coordinates":[9.574687,54.512462]}},{"type":"Feature","properties":{"id":"kirche-karby","name":"Kirche Karby","cat":"kirche","wikidata":"Q58396613","wikipedia":"de:Kirche Karby","text":"Die Kirche Karby ist ein geschütztes Kulturdenkmal mit der Objekt-ID 2033 im Denkmalschutzgesetz in Karby, einer Gemeinde im Kreis Rendsburg-Eckernförde in Schleswig-Holstein. Sie ist eine von fünf mittelalterlichen Kirchen der Kirchengemeinde Schwansen im Kirchenkreis Rendsburg-Eckernförde der Evangelisch-Lutherischen Kirche in Norddeutschland.","text_source":"Wikipedia (CC BY-SA 4.0)","wiki_url":"https://de.wikipedia.org/wiki/Kirche_Karby","img":"https://upload.wikimedia.org/wikipedia/commons/thumb/7/7a/Kirche_Karby.jpg/330px-Kirche_Karby.jpg","img_credit":"Clemensfranz","img_license":"CC BY-SA 3.0","kulturdenkmal":true,"kulturdenkmal_text":"Baudenkmal: Kirche mit Ausstattung"},"geometry":{"type":"Point","coordinates":[9.975942,54.623153]}},{"type":"Feature","properties":{"id":"kirche-sieseby","name":"Kirche Sieseby","cat":"kirche","wikidata":"Q17480797","text":"Die Kirche von Sieseby in der Gemeinde Thumby ist ein Feldsteinbau aus dem 12. Jahrhundert mit spätgotischem Backsteinchor. Sie steht in dem denkmalgeschützten Dorf Sieseby an der Schlei. Sie gehört zur Kirchengemeinde Schwansen in der Evangelisch-Lutherischen Kirche in Norddeutschland.","text_source":"Wikipedia (CC BY-SA 4.0)","wiki_url":"https://de.wikipedia.org/wiki/Kirche_Sieseby","img":"https://upload.wikimedia.org/wikipedia/commons/thumb/1/18/Sieseby-Kirche-2019-msu-4783.jpg/330px-Sieseby-Kirche-2019-msu-4783.jpg","img_credit":"Matthias Süßen","img_license":"CC BY-SA 4.0","kulturdenkmal":true,"kulturdenkmal_text":"Baudenkmal: Kirche mit Ausstattung"},"geometry":{"type":"Point","coordinates":[9.860647,54.594548]}},{"type":"Feature","properties":{"id":"kirche-svans","name":"Kirche Svansø","cat":"kirche","website":"https://www.kirche-svansoe.de/"},"geometry":{"type":"Point","coordinates":[9.918311,54.600561]}},{"type":"Feature","properties":{"id":"kreuzkirche","name":"Kreuzkirche","cat":"kirche","wikidata":"Q58406534","kulturdenkmal":true,"kulturdenkmal_text":"Baudenkmal: Kreuzkirche"},"geometry":{"type":"Point","coordinates":[9.6909,54.482384]}},{"type":"Feature","properties":{"id":"kriegerdenkmal","name":"Kriegerdenkmal","cat":"denkmal","kulturdenkmal":true,"kulturdenkmal_text":"Baudenkmal: Hauptpforte"},"geometry":{"type":"Point","coordinates":[9.707445,54.534805]}},{"type":"Feature","properties":{"id":"kriegerdenkmal-2","name":"Kriegerdenkmal","cat":"denkmal","kulturdenkmal":true,"kulturdenkmal_text":"Baudenkmal: Feldsteinwall / -mauer"},"geometry":{"type":"Point","coordinates":[9.656613,54.54658]}},{"type":"Feature","properties":{"id":"kriegerdenkmal-1870-71","name":"Kriegerdenkmal 1870/71","cat":"denkmal","kulturdenkmal":true,"kulturdenkmal_text":"Baudenkmal: Kirche mit Ausstattung"},"geometry":{"type":"Point","coordinates":[9.975916,54.62301]}},{"type":"Feature","properties":{"id":"kriegerdenkmal-1914-18-1939-45","name":"Kriegerdenkmal 1914-18 1939-45","cat":"denkmal","kulturdenkmal":true,"kulturdenkmal_text":"Baudenkmal: Feldsteinwall"},"geometry":{"type":"Point","coordinates":[9.81878,54.612537]}},{"type":"Feature","properties":{"id":"koenigreichssaal-jehovas-zeugen","name":"Königreichssaal Jehovas Zeugen","cat":"kirche","website":"https://www.jw.org/de/"},"geometry":{"type":"Point","coordinates":[9.535187,54.500098]}},{"type":"Feature","properties":{"id":"koenigreichssaal-jehovas-zeugen-2","name":"Königreichssaal Jehovas Zeugen","cat":"kirche","website":"https://www.jw.org/de/"},"geometry":{"type":"Point","coordinates":[9.918128,54.664439]}},{"type":"Feature","properties":{"id":"koenigshuegel","name":"Königshügel","cat":"wikinger","kulturdenkmal":true,"kulturdenkmal_text":"Baudenkmal: Ehrenmal auf dem Königshügel"},"geometry":{"type":"Point","coordinates":[9.564444,54.477361]}},{"type":"Feature","properties":{"id":"landesmuseum-schleswig-holstein","name":"Landesmuseum Schleswig-Holstein","cat":"museum","wikidata":"Q39695701","wikipedia":"de:Landesmuseum für Kunst und Kulturgeschichte (Schleswig)","website":"https://museum-fuer-kunst-und-kulturgeschichte.de","text":"Das Landesmuseum für Kunst und Kulturgeschichte ist ein Kunstmuseum in der Stadt Schleswig. Das Museum wurde in den 1880er Jahren gegründet und befindet sich seit 1948 im Schloss Gottorf.","text_source":"Wikipedia (CC BY-SA 4.0)","wiki_url":"https://de.wikipedia.org/wiki/Landesmuseum_f%C3%BCr_Kunst_und_Kulturgeschichte_(Schleswig)","kulturdenkmal":true,"kulturdenkmal_text":"Gründenkmal (Fläche): Schlossinsel"},"geometry":{"type":"Point","coordinates":[9.541366,54.511668]}},{"type":"Feature","properties":{"id":"leuchtturm-schleimuende","name":"Leuchtturm Schleimünde","cat":"technik","wikidata":"Q19979499","text":"Der Leuchtturm Schleimünde bewacht seit 1871 die Einfahrt von der Ostsee in die Schlei; die kleine Lotseninsel ist nur per Boot erreichbar.","text_source":"Redaktion dieschlei.de","wiki_url":"https://de.wikipedia.org/wiki/Leuchtturm_Schleim%C3%BCnde","img":"https://upload.wikimedia.org/wikipedia/commons/thumb/c/cd/Leuchtturm_Schleim%C3%BCnde_2015.JPG/330px-Leuchtturm_Schleim%C3%BCnde_2015.JPG","img_credit":"Jörg Braukmann","img_license":"CC BY-SA 4.0","kulturdenkmal":true,"kulturdenkmal_text":"Baudenkmal: Leuchtturm \"Schleimünde\"","highlight":true},"geometry":{"type":"Point","coordinates":[10.03627,54.671431]}},{"type":"Feature","properties":{"id":"louisensaeule","name":"Louisensäule","cat":"denkmal","kulturdenkmal":true,"kulturdenkmal_text":"Baudenkmal: Louisensäule"},"geometry":{"type":"Point","coordinates":[9.677401,54.493726]}},{"type":"Feature","properties":{"id":"lutherhaus","name":"Lutherhaus","cat":"kirche","website":"https://www.gemeinschaft-schleswig.de/","kulturdenkmal":true,"kulturdenkmal_text":"Sachgesamtheit: Sachgesamtheit: Dreifaltigkeitskirche"},"geometry":{"type":"Point","coordinates":[9.543007,54.501331]}},{"type":"Feature","properties":{"id":"maasholm","name":"Maasholm","cat":"denkmal","text":"Altes Fischerdorf direkt an der Schleimündung, zwischen Ostsee und Noor. Bootshafen, reetgedeckte Katen und der Blick über das Naturschutzgebiet Schleimündung machen den Reiz aus.","text_source":"Redaktion dieschlei.de","highlight":true,"wiki_url":"https://de.wikipedia.org/wiki/Maasholm"},"geometry":{"type":"Point","coordinates":[10.0106,54.6862]}},{"type":"Feature","properties":{"id":"margarethenwall","name":"Margarethenwall","cat":"wikinger","wikidata":"Q12325958"},"geometry":{"type":"Point","coordinates":[9.545857,54.490828]}},{"type":"Feature","properties":{"id":"margarethenwall-2","name":"Margarethenwall","cat":"wikinger"},"geometry":{"type":"Point","coordinates":[9.527834,54.492424]}},{"type":"Feature","properties":{"id":"mariensaeule","name":"Mariensäule","cat":"denkmal","kulturdenkmal":true,"kulturdenkmal_text":"Baudenkmal: Mariensäule (Obelisk)"},"geometry":{"type":"Point","coordinates":[9.681868,54.493274]}},{"type":"Feature","properties":{"id":"missunde","name":"Missunde","cat":"denkmal","text":"Historische Engstelle der Schlei und uralte Fährstelle — Schauplatz des Gefechts bei Missunde 1864. Noch heute quert hier eine kleine Fähre den Fluss.","text_source":"Redaktion dieschlei.de","highlight":true,"img":"https://upload.wikimedia.org/wikipedia/commons/thumb/5/5f/Battle_of_Missunde%2C_1864.jpg/330px-Battle_of_Missunde%2C_1864.jpg","img_credit":"Unknown authorUnknown author","img_license":"Public domain","wiki_url":"https://de.wikipedia.org/wiki/Gefecht_von_Missunde"},"geometry":{"type":"Point","coordinates":[9.7358,54.5147]}},{"type":"Feature","properties":{"id":"museum-bauerngarten","name":"Museum Bauerngarten","cat":"museum","kulturdenkmal":true,"kulturdenkmal_text":"Baudenkmal: Fachhallenhaus"},"geometry":{"type":"Point","coordinates":[9.735161,54.553337]}},{"type":"Feature","properties":{"id":"museum-fuer-outsiderkunst","name":"Museum für Outsiderkunst","cat":"museum","wikidata":"Q76638962","website":"https://www.stadtmuseum-schleswig.de/museum-fuer-outsiderkunst","kulturdenkmal":true,"kulturdenkmal_text":"Baudenkmal: Präsidentenkloster"},"geometry":{"type":"Point","coordinates":[9.559284,54.515738]}},{"type":"Feature","properties":{"id":"museumshafen-kappeln","name":"Museumshafen Kappeln","cat":"museum","website":"https://www.museumshafen-kappeln.de/"},"geometry":{"type":"Point","coordinates":[9.936142,54.654352]}},{"type":"Feature","properties":{"id":"muehle-anna","name":"Mühle Anna","cat":"technik","wikidata":"Q58405034","website":"https://www.muehle-anna.de/","kulturdenkmal":true,"kulturdenkmal_text":"Baudenkmal: Windmühle \"Anna\""},"geometry":{"type":"Point","coordinates":[9.803395,54.543165]}},{"type":"Feature","properties":{"id":"neuapostolische-kirche","name":"Neuapostolische Kirche","cat":"kirche"},"geometry":{"type":"Point","coordinates":[9.544515,54.508425]}},{"type":"Feature","properties":{"id":"neuapostolische-kirche-2","name":"Neuapostolische Kirche","cat":"kirche","website":"http://www.nak-kappeln.de/"},"geometry":{"type":"Point","coordinates":[9.927216,54.655277]}},{"type":"Feature","properties":{"id":"nicola","name":"Nicola","cat":"technik","website":"http://muehle-nicola.de"},"geometry":{"type":"Point","coordinates":[9.596041,54.518469]}},{"type":"Feature","properties":{"id":"pauluskirche","name":"Pauluskirche","cat":"kirche"},"geometry":{"type":"Point","coordinates":[9.555895,54.525849]}},{"type":"Feature","properties":{"id":"phantastischer-spaziergang","name":"Phantastischer Spaziergang","cat":"denkmal","kulturdenkmal":true,"kulturdenkmal_text":"Baudenkmal: ehem. Stallgebäude (Haus 20)"},"geometry":{"type":"Point","coordinates":[9.544098,54.512068]}},{"type":"Feature","properties":{"id":"quadrolog","name":"Quadrolog","cat":"denkmal","kulturdenkmal":true,"kulturdenkmal_text":"Baudenkmal: Nydamhalle"},"geometry":{"type":"Point","coordinates":[9.539525,54.511387]}},{"type":"Feature","properties":{"id":"ramm-ii","name":"Ramm II","cat":"denkmal","kulturdenkmal":true,"kulturdenkmal_text":"Baudenkmal: Wachhaus"},"geometry":{"type":"Point","coordinates":[9.540767,54.511379]}},{"type":"Feature","properties":{"id":"rechteckdolmen-von-huesby","name":"Rechteckdolmen von Hüsby","cat":"wikinger","wikidata":"Q1349411","wikipedia":"de:Rechteckdolmen von Hüsby","text":"Der Rechteckdolmen von Hüsby, mit halbhohem Eintrittstein wurde im Jahre 1966 im Zusammenhang mit einer Knickrodung, im Rahmen der Flurbereinigung, von Gottfried Schäfer untersucht. Er wurde etwa einen Kilometer westlich seines heutigen Standortes entdeckt und ausgegraben. Er stammt aus dem Neolithikum und ist eine Anlage der Trichterbecherkultur. Hüsby liegt westlich von Schleswig in Schleswig-Holstein. Der rekonstruierte Dolmen liegt heute kurz vor dem nördlichen Ortseingang von Hüsby, zwischen Klein-Dannewerk und Schuby, rechts der Straße.","text_source":"Wikipedia (CC BY-SA 4.0)","wiki_url":"https://de.wikipedia.org/wiki/Rechteckdolmen_von_H%C3%BCsby","img":"https://upload.wikimedia.org/wikipedia/commons/thumb/7/71/Huesby_Steingrab_a.jpg/330px-Huesby_Steingrab_a.jpg","img_credit":"Holger rix","img_license":"CC BY-SA 3.0"},"geometry":{"type":"Point","coordinates":[9.487038,54.501385]}},{"type":"Feature","properties":{"id":"reiterregiment-14","name":"Reiterregiment 14","cat":"denkmal","kulturdenkmal":true,"kulturdenkmal_text":"Baudenkmal: Husarendenkmal"},"geometry":{"type":"Point","coordinates":[9.542067,54.507446]}},{"type":"Feature","properties":{"id":"ringwall","name":"Ringwall","cat":"wikinger"},"geometry":{"type":"Point","coordinates":[9.568238,54.488995]}},{"type":"Feature","properties":{"id":"ringwall-2","name":"Ringwall","cat":"wikinger"},"geometry":{"type":"Point","coordinates":[9.563444,54.491123]}},{"type":"Feature","properties":{"id":"ringwall-3","name":"Ringwall","cat":"wikinger"},"geometry":{"type":"Point","coordinates":[9.56479,54.494136]}},{"type":"Feature","properties":{"id":"sankt-andreas","name":"Sankt Andreas","cat":"kirche","wikidata":"Q12314948","wikipedia":"de:St. Andreas Haddeby (Busdorf)","text":"St. Andreas Haddeby ist eine evangelische Kirche in Busdorf. Sie liegt etwas außerhalb des Dorfkerns, etwa 700 m nördlich des Walls des historischen Haithabu. Die Kirche wurde um 1200 aus Feldsteinen errichtet und zeigt teilweise noch ursprüngliche spätromanische Bauformen.","text_source":"Wikipedia (CC BY-SA 4.0)","wiki_url":"https://de.wikipedia.org/wiki/St._Andreas_Haddeby_(Busdorf)","img":"https://upload.wikimedia.org/wikipedia/commons/thumb/4/46/Haddeby_St_Andreas_von_S%C3%BCden_110403.jpg/330px-Haddeby_St_Andreas_von_S%C3%BCden_110403.jpg","img_credit":"Uwe Barghaan","img_license":"CC BY-SA 3.0","kulturdenkmal":true,"kulturdenkmal_text":"Baudenkmal: Kirche St. Andreas mit Ausstattung"},"geometry":{"type":"Point","coordinates":[9.570079,54.500432]}},{"type":"Feature","properties":{"id":"sankt-andreas-2","name":"Sankt Andreas","cat":"kirche","wikidata":"Q58395870","text":"Die St.-Andreas-Kirche in Brodersby ist eine romanische Kirche, die der evangelisch-lutherischen Kirchengemeinde Angeln-Süd im Kirchenkreis Schleswig-Flensburg der Evangelisch-Lutherischen Kirche in Norddeutschland gehört. Sie gilt als die Kirche in Angeln, die die ursprüngliche Bauform am besten erhalten hat.","text_source":"Wikipedia (CC BY-SA 4.0)","wiki_url":"https://de.wikipedia.org/wiki/St.-Andreas-Kirche_(Brodersby)","img":"https://upload.wikimedia.org/wikipedia/commons/thumb/3/3a/Brodersby_Kirche-msu-8631-.jpg/330px-Brodersby_Kirche-msu-8631-.jpg","img_credit":"Matthias Süßen","img_license":"CC BY-SA 4.0","kulturdenkmal":true,"kulturdenkmal_text":"Baudenkmal: Kirche St. Andreas mit Ausstattung"},"geometry":{"type":"Point","coordinates":[9.708039,54.534642]}},{"type":"Feature","properties":{"id":"sankt-ansgar","name":"Sankt Ansgar","cat":"kirche","wikidata":"Q58402210","kulturdenkmal":true,"kulturdenkmal_text":"Baudenkmal: Kath. Kirche St. Ansgar mit Ausstattung"},"geometry":{"type":"Point","coordinates":[9.551363,54.513307]}},{"type":"Feature","properties":{"id":"sankt-jakobus-zu-moldenit","name":"Sankt Jakobus zu Moldenit","cat":"kirche","wikidata":"Q58395609","text":"Die evangelisch-lutherische St.-Jakobus-Kirche im zu Schaalby gehörenden Dorf Moldenit ist eine romanische Feldsteinkirche aus dem 12. Jahrhundert.","text_source":"Wikipedia (CC BY-SA 4.0)","wiki_url":"https://de.wikipedia.org/wiki/St._Jakobus_(Moldenit)","img":"https://upload.wikimedia.org/wikipedia/commons/thumb/0/06/St._Jakobus_%28Moldenit%29-msu-2020-1954.jpg/330px-St._Jakobus_%28Moldenit%29-msu-2020-1954.jpg","img_credit":"Matthias Süßen","img_license":"CC BY-SA 4.0","kulturdenkmal":true,"kulturdenkmal_text":"Gründenkmal (Fläche): Kirchhof"},"geometry":{"type":"Point","coordinates":[9.616039,54.543727]}},{"type":"Feature","properties":{"id":"sankt-marien","name":"Sankt Marien","cat":"kirche","wikidata":"Q58395612","text":"Die St.-Marien-Kirche in Kahleby in der Gemeinde Schaalby liegt einsam zwischen den Dörfern Füsing und Schaalby. Die Backsteinkirche gehört heute zur Kirchengemeinde Brodersby-Kahleby-Moldenit in der Evangelisch-Lutherischen Kirche in Norddeutschland.","text_source":"Wikipedia (CC BY-SA 4.0)","wiki_url":"https://de.wikipedia.org/wiki/St._Marien_(Kahleby)","img":"https://upload.wikimedia.org/wikipedia/commons/thumb/6/69/St-marien-kahleby-msu-8463-.jpg/330px-St-marien-kahleby-msu-8463-.jpg","img_credit":"Matthias Süßen","img_license":"CC BY-SA 4.0","kulturdenkmal":true,"kulturdenkmal_text":"Baudenkmal: Kirche St. Marien mit Ausstattung"},"geometry":{"type":"Point","coordinates":[9.657413,54.546487]}},{"type":"Feature","properties":{"id":"sankt-marien-2","name":"Sankt Marien","cat":"kirche","wikidata":"Q58395745","text":"Die St.-Marien-Kirche in Boren im Kreis Schleswig-Flensburg in Schleswig-Holstein ist eine romanische Backsteinkirche aus dem Beginn des 13. Jahrhunderts. „Keine der vielen romanischen Kirchen Angelns zeigt heute so stilrein das Bild ihrer Bauzeit“.","text_source":"Wikipedia (CC BY-SA 4.0)","wiki_url":"https://de.wikipedia.org/wiki/St.-Marien-Kirche_(Boren)","img":"https://upload.wikimedia.org/wikipedia/commons/thumb/2/25/Marienkirche_%28Boren%29.8.ajb.jpg/330px-Marienkirche_%28Boren%29.8.ajb.jpg","img_credit":"Ajepbah","img_license":"CC BY-SA 3.0 de","kulturdenkmal":true,"kulturdenkmal_text":"Baudenkmal: St. Marienkirche mit Ausstattung"},"geometry":{"type":"Point","coordinates":[9.819299,54.613074]}},{"type":"Feature","properties":{"id":"sankt-marien-3","name":"Sankt Marien","cat":"kirche","wikidata":"Q14912421","wikipedia":"de:St.-Marien-Kirche (Rabenkirchen)","text":"Die St.-Marien-Kirche ist ein Kirchengebäude der evangelisch-lutherischen Kirchengemeinde Arnis-Rabenkirchen in Rabenkirchen-Faulück im Kreis Schleswig-Flensburg in Schleswig-Holstein.","text_source":"Wikipedia (CC BY-SA 4.0)","wiki_url":"https://de.wikipedia.org/wiki/St.-Marien-Kirche_(Rabenkirchen)","img":"https://upload.wikimedia.org/wikipedia/commons/thumb/f/f9/Rabenkirchen_Marienkirche.jpg/330px-Rabenkirchen_Marienkirche.jpg","img_credit":"Agnete","img_license":"CC BY-SA 3.0","kulturdenkmal":true,"kulturdenkmal_text":"Baudenkmal: Kirche St. Marien mit Ausstattung"},"geometry":{"type":"Point","coordinates":[9.85494,54.646864]}},{"type":"Feature","properties":{"id":"sankt-marien-4","name":"Sankt Marien","cat":"kirche","wikidata":"Q96761380","website":"https://pfarrei-stella-maris.de/Kappeln_Kirche-St.-Marien_2995"},"geometry":{"type":"Point","coordinates":[9.933561,54.664418]}},{"type":"Feature","properties":{"id":"sankt-nikolai","name":"Sankt Nikolai","cat":"kirche","wikidata":"Q2321896","text":"Die St.-Nikolai-Kirche ist eine evangelisch-lutherische Kirche in Kappeln in Schleswig-Holstein, die gegen Ende des 18. Jahrhunderts erbaut wurde und unter Denkmalschutz steht.","text_source":"Wikipedia (CC BY-SA 4.0)","wiki_url":"https://de.wikipedia.org/wiki/St._Nikolai_(Kappeln)","img":"https://upload.wikimedia.org/wikipedia/commons/thumb/b/b0/Hafen_Kirche_Kappeln.jpg/330px-Hafen_Kirche_Kappeln.jpg","img_credit":"Clemensfranz","img_license":"CC BY-SA 3.0","kulturdenkmal":true,"kulturdenkmal_text":"Baudenkmal: Kirche St. Nikolai mit Ausstattung"},"geometry":{"type":"Point","coordinates":[9.933484,54.661606]}},{"type":"Feature","properties":{"id":"sankt-petri","name":"Sankt Petri","cat":"kirche","wikidata":"Q14541507","wikipedia":"de:St.-Petri-Kirche (Rieseby)","text":"Die St.-Petri-Kirche in Rieseby ist eine spätromanische Backsteinkirche, die zur Kirchengemeinde Schwansen/Rieseby im Kirchenkreis Rendsburg-Eckernförde in der Evangelisch-Lutherischen Kirche in Norddeutschland gehört. Sie gilt als eine der schönsten Landkirchen Schleswig-Holsteins.","text_source":"Wikipedia (CC BY-SA 4.0)","wiki_url":"https://de.wikipedia.org/wiki/St.-Petri-Kirche_(Rieseby)","img":"https://upload.wikimedia.org/wikipedia/commons/thumb/2/2d/Rieseby_au%C3%9Fen.jpg/330px-Rieseby_au%C3%9Fen.jpg","img_credit":"Agnete","img_license":"CC BY-SA 3.0","kulturdenkmal":true,"kulturdenkmal_text":"Baudenkmal: Kirche St. Petri mit Ausstattung"},"geometry":{"type":"Point","coordinates":[9.813634,54.542234]}},{"type":"Feature","properties":{"id":"sankt-petri-2","name":"Sankt Petri","cat":"kirche","wikidata":"Q96711270","kulturdenkmal":true,"kulturdenkmal_text":"Baudenkmal: Kirche St. Petri mit Ausstattung"},"geometry":{"type":"Point","coordinates":[9.989172,54.683439]}},{"type":"Feature","properties":{"id":"sankt-willehad","name":"Sankt Willehad","cat":"kirche","wikidata":"Q65032626","wikipedia":"de:St.-Wilhadi-Kirche (Ulsnis)","text":"Die St.-Wilhadi-Kirche in Ulsnis ist eine mittelalterliche Feldsteinkirche in Südangeln und steht unter Denkmalschutz. Sie gehört zur Kirchengemeinde Süderbrarup im Kirchenkreis Schleswig-Flensburg der Evangelisch-Lutherischen Kirche in Norddeutschland.","text_source":"Wikipedia (CC BY-SA 4.0)","wiki_url":"https://de.wikipedia.org/wiki/St.-Wilhadi-Kirche_(Ulsnis)","img":"https://upload.wikimedia.org/wikipedia/commons/thumb/a/a1/Wilhadikirche_Ulsnis.jpg/330px-Wilhadikirche_Ulsnis.jpg","img_credit":"Agnete","img_license":"CC BY-SA 4.0","kulturdenkmal":true,"kulturdenkmal_text":"Baudenkmal: Kirche St. Wilhadi mit Ausstattung"},"geometry":{"type":"Point","coordinates":[9.747483,54.573773]}},{"type":"Feature","properties":{"id":"sankt-johannis-kloster","name":"Sankt-Johannis-Kloster","cat":"kirche","wikidata":"Q58402010","website":"https://www.st-johannis-kloster.de/","kulturdenkmal":true,"kulturdenkmal_text":"Gründenkmal (Fläche): Klosterkirchhof"},"geometry":{"type":"Point","coordinates":[9.578952,54.511775]}},{"type":"Feature","properties":{"id":"sankt-johannis-kloster-vor-schleswig","name":"Sankt-Johannis-Kloster vor Schleswig","cat":"kirche","wikipedia":"de:St.-Johannis-Kloster vor Schleswig","website":"https://www.st-johannis-kloster.de/","text":"Das St.-Johannis-Kloster vor Schleswig wurde 1194 als Benediktinerinnenkloster gegründet.","text_source":"Wikipedia (CC BY-SA 4.0)","wiki_url":"https://de.wikipedia.org/wiki/St.-Johannis-Kloster_vor_Schleswig","img":"https://upload.wikimedia.org/wikipedia/commons/thumb/d/d0/St.-Johannis-Kloster_vor_Schleswig-msu-2020-2238.jpg/330px-St.-Johannis-Kloster_vor_Schleswig-msu-2020-2238.jpg","img_credit":"Matthias Süßen","img_license":"CC BY-SA 4.0","kulturdenkmal":true,"kulturdenkmal_text":"Gründenkmal (Fläche): Gartenanlagen"},"geometry":{"type":"Point","coordinates":[9.578507,54.511258]}},{"type":"Feature","properties":{"id":"sankt-laurentius-kirche","name":"Sankt-Laurentius-Kirche","cat":"kirche","wikidata":"Q14541505","wikipedia":"de:Laurentius-Kirche (Kosel)","text":"Die Laurentius-Kirche in Kosel, eine romanische Feldsteinkirche mit einem massiven Rundturm, stammt aus dem 12. Jahrhundert. Sie trägt das Patrozinium des heiligen Laurentius von Rom. Die Namensgebung steht möglicherweise im Zusammenhang mit dem am Laurentiustag, dem 10. August 1250, in der Schlei vor Missunde ermordeten dänischen König Erik Plovpenning. Die Kirche gehört der evangelisch-lutherischen Kirchengemeinde Kosel im Kirchenkreis Rendsburg-Eckernförde in der Evangelisch-Lutherischen Kirche in Norddeutschland.","text_source":"Wikipedia (CC BY-SA 4.0)","wiki_url":"https://de.wikipedia.org/wiki/Laurentius-Kirche_(Kosel)","img":"https://upload.wikimedia.org/wikipedia/commons/thumb/7/71/Kosel2.jpg/330px-Kosel2.jpg","img_credit":"Agnete","img_license":"CC BY-SA 3.0","kulturdenkmal":true,"kulturdenkmal_text":"Gründenkmal (Fläche): Kirchhof"},"geometry":{"type":"Point","coordinates":[9.751863,54.505509]}},{"type":"Feature","properties":{"id":"sankt-petri-dom-zu-schleswig","name":"Sankt-Petri-Dom zu Schleswig","cat":"kirche","wikidata":"Q523691","wikipedia":"de:Schleswiger Dom","text":"Der St.-Petri-Dom prägt die Silhouette Schleswigs; im Inneren der weltberühmte Bordesholmer Altar von Hans Brüggemann (1521).","text_source":"Redaktion dieschlei.de","wiki_url":"https://de.wikipedia.org/wiki/Schleswiger_Dom","img":"https://upload.wikimedia.org/wikipedia/commons/thumb/b/b1/Schleswig_WT2005.jpg/330px-Schleswig_WT2005.jpg","img_credit":"No machine-readable author provided. Wikitour assumed (based on copyright claims).","img_license":"CC BY-SA 3.0","kulturdenkmal":true,"kulturdenkmal_text":"Sachgesamtheit: Sachgesamtheit: Dom St. Petri","highlight":true},"geometry":{"type":"Point","coordinates":[9.569166,54.513696]}},{"type":"Feature","properties":{"id":"schifferkirche","name":"Schifferkirche","cat":"kirche","wikidata":"Q14912606","text":"Die Schifferkirche ist ein Kirchengebäude der evangelisch-lutherischen Kirchengemeinde Arnis-Rabenkirchen in Arnis im Kreis Schleswig-Flensburg in Schleswig-Holstein. Der heute gebräuchliche Name „Schifferkirche“ bezieht sich darauf, dass seit dem 18. Jahrhundert Arnisser Schiffer der Kirche Votivschiffe, Schiffsmodelle, als Dank für eine Errettung aus Seenot, stifteten.","text_source":"Wikipedia (CC BY-SA 4.0)","wiki_url":"https://de.wikipedia.org/wiki/Schifferkirche_(Arnis)","img":"https://upload.wikimedia.org/wikipedia/commons/thumb/5/5e/Kulturdenkmal_Arnis_Schifferkirche_1673_S%C3%BCdansicht_Schleswig-Holstein_Foto_Wolfgang_Pehlemann_IMG_8791.jpg/330px-Kulturdenkmal_Arnis_Schifferkirche_1673_S%C3%BCdansicht_Schleswig-Holstein_Foto_Wolfgang_Pehlemann_IMG_8791.jpg","img_credit":"Wolfgang Pehlemann","img_license":"CC BY-SA 3.0","kulturdenkmal":true,"kulturdenkmal_text":"Baudenkmal: Schifferkirche mit Ausstattung"},"geometry":{"type":"Point","coordinates":[9.929108,54.628133]}},{"type":"Feature","properties":{"id":"schlachterturm","name":"Schlachterturm","cat":"denkmal","kulturdenkmal":true,"kulturdenkmal_text":"Baudenkmal: Schloss Gottorf"},"geometry":{"type":"Point","coordinates":[9.54042,54.51206]}},{"type":"Feature","properties":{"id":"schleswig-holm","name":"Schleswig Holm","cat":"denkmal","kulturdenkmal":true,"kulturdenkmal_text":"Baudenkmal: Wohnhaus","text":"Die Fischersiedlung Holm in Schleswig bewahrt mit ihrem Friedhof rund um die zentrale Kapelle das Bild eines alten Fischerdorfs.","text_source":"Redaktion dieschlei.de","highlight":true},"geometry":{"type":"Point","coordinates":[9.573442,54.513127]}},{"type":"Feature","properties":{"id":"schleswig-holstein-gedenkstein","name":"Schleswig-Holstein Gedenkstein","cat":"denkmal","kulturdenkmal":true,"kulturdenkmal_text":"Baudenkmal: Gedenkstein"},"geometry":{"type":"Point","coordinates":[9.818675,54.613461]}},{"type":"Feature","properties":{"id":"schleswig-holstein-gedenkstein-2","name":"Schleswig-Holstein-Gedenkstein","cat":"denkmal","kulturdenkmal":true,"kulturdenkmal_text":"Baudenkmal: Kirchhofspforte"},"geometry":{"type":"Point","coordinates":[9.97538,54.623333]}},{"type":"Feature","properties":{"id":"schleswigerin","name":"Schleswigerin","cat":"denkmal","wikidata":"Q113578702"},"geometry":{"type":"Point","coordinates":[9.550077,54.512289]}},{"type":"Feature","properties":{"id":"schloss-gottorf","name":"Schloss Gottorf","cat":"schloss","wikidata":"Q647987","wikipedia":"de:Schloss Gottorf","website":"http://www.schloss-gottorf.de/","text":"Barockresidenz auf einer Schleiinsel in Schleswig, heute Landesmuseen für Kunst und Archäologie — mit dem Nydam-Boot und dem rekonstruierten Gottorfer Globus.","text_source":"Redaktion dieschlei.de","wiki_url":"https://de.wikipedia.org/wiki/Schloss_Gottorf","img":"https://upload.wikimedia.org/wikipedia/commons/thumb/d/d9/Schloss_Gottorf-msu-2020-2347.jpg/330px-Schloss_Gottorf-msu-2020-2347.jpg","img_credit":"Matthias Süßen","img_license":"CC BY-SA 4.0","kulturdenkmal":true,"kulturdenkmal_text":"Gründenkmal (Fläche): Schlossinsel","highlight":true},"geometry":{"type":"Point","coordinates":[9.541322,54.511847]}},{"type":"Feature","properties":{"id":"schloss-schoenhagen","name":"Schloss Schönhagen","cat":"schloss","wikidata":"Q1558672","wikipedia":"de:Schloss Schönhagen","text":"Das Schloss Schönhagen ist das denkmalgeschützte zentrale Bauwerk des vormaligen Rittergutes und heutigen Ostseebades Schönhagen, das zur Gemeinde Brodersby gehört. Es liegt hinter der charakteristischen Steilküste Schönhagens an der Ostsee.","text_source":"Wikipedia (CC BY-SA 4.0)","wiki_url":"https://de.wikipedia.org/wiki/Schloss_Sch%C3%B6nhagen","img":"https://upload.wikimedia.org/wikipedia/commons/thumb/6/69/Sch%C3%B6nhagen_Herrenhaus.jpg/330px-Sch%C3%B6nhagen_Herrenhaus.jpg","img_credit":"Unknown authorUnknown author","img_license":"Public domain"},"geometry":{"type":"Point","coordinates":[10.022404,54.631639]}},{"type":"Feature","properties":{"id":"schlosskapelle","name":"Schlosskapelle","cat":"kirche","kulturdenkmal":true,"kulturdenkmal_text":"Baudenkmal: Schloss Gottorf"},"geometry":{"type":"Point","coordinates":[9.541124,54.511994]}},{"type":"Feature","properties":{"id":"segelsaeule","name":"Segelsäule","cat":"denkmal","wikidata":"Q127385567","kulturdenkmal":true,"kulturdenkmal_text":"Baudenkmal: ehem. Stallgebäude (Haus 20)"},"geometry":{"type":"Point","coordinates":[9.54334,54.511999]}},{"type":"Feature","properties":{"id":"selker-muehle","name":"Selker Mühle","cat":"technik","kulturdenkmal":true,"kulturdenkmal_text":"Baudenkmal: Wassermühle"},"geometry":{"type":"Point","coordinates":[9.581166,54.471494]}},{"type":"Feature","properties":{"id":"sieseby","name":"Sieseby","cat":"denkmal","text":"Nahezu vollständig erhaltenes Gutsdorf am Südufer: reetgedeckte Katen, Kapitänshäuser und die Feldsteinkirche fügen sich zu einem denkmalgeschützten Ensemble.","text_source":"Redaktion dieschlei.de","highlight":true,"img":"https://upload.wikimedia.org/wikipedia/commons/thumb/1/18/Sieseby-Kirche-2019-msu-4783.jpg/330px-Sieseby-Kirche-2019-msu-4783.jpg","img_credit":"Matthias Süßen","img_license":"CC BY-SA 4.0","wiki_url":"https://de.wikipedia.org/wiki/Sieseby"},"geometry":{"type":"Point","coordinates":[9.8686,54.5533]}},{"type":"Feature","properties":{"id":"skarthestein","name":"Skarthestein","cat":"wikinger","wikidata":"Q10466540","wikipedia":"de:Runensteine von Haithabu#Der Skarthestein","text":"Die Runensteine von Haithabu stellen wertvolle historische Urkunden dar, deren Bedeutung darin liegt, dass die Frühgeschichte im südlichen Dänemark aus der Zeit vor und nach der dänischen Reichseinigung mit realen Ereignissen verbunden werden kann. Der Sinn von Runensteinen ist es, der Nachwelt die Erinnerung an bedeutende Männer zu überliefern. Die Aufrichtung solcher Gedenksteine beschränkt sich deshalb auf einen sozial abgehobenen Kreis. Die vier auf die Stadt Haithabu zu beziehenden Runensteine sind im Wikinger Museum Haithabu ausgestellt und werden in zwei Gruppen eingeteilt, die „Sigtryggsteine“ und die „Svensteine“.","text_source":"Wikipedia (CC BY-SA 4.0)","wiki_url":"https://de.wikipedia.org/wiki/Runensteine_von_Haithabu"},"geometry":{"type":"Point","coordinates":[9.545823,54.487998]}},{"type":"Feature","properties":{"id":"stadtmuseum-schleswig","name":"Stadtmuseum Schleswig","cat":"museum","wikidata":"Q76638966","wikipedia":"de:Stadtmuseum Schleswig","website":"https://www.stadtmuseum-schleswig.de/","text":"Das Stadtmuseum Schleswig befindet sich im Günderothschen Hof, ein Ensemble historischer Bauwerke in der Friedrichstraße im Schleswiger Stadtteil Friedrichsberg. Die Ausstellung gibt einen Überblick über die Geschichte und Kultur Schleswigs vom Mittelalter bis zur Gegenwart. Das Stadtmuseum verfügt über eine Ausstellungsfläche von 1500 Quadratmetern in fünf Gebäuden. Dependancen sind das Museum für Outsiderkunst und das Holm-Museum.","text_source":"Wikipedia (CC BY-SA 4.0)","wiki_url":"https://de.wikipedia.org/wiki/Stadtmuseum_Schleswig","img":"https://upload.wikimedia.org/wikipedia/commons/thumb/e/ed/G%C3%BCnderrothscher_Hof_%28Schleswig%29-msu-2021-0717-4119.jpg/330px-G%C3%BCnderrothscher_Hof_%28Schleswig%29-msu-2021-0717-4119.jpg","img_credit":"Matthias Süßen","img_license":"CC BY-SA 4.0","kulturdenkmal":true,"kulturdenkmal_text":"Baudenkmal: Haupthaus"},"geometry":{"type":"Point","coordinates":[9.542157,54.505535]}},{"type":"Feature","properties":{"id":"stehende-figur","name":"Stehende Figur","cat":"denkmal","kulturdenkmal":true,"kulturdenkmal_text":"Baudenkmal: Kreuzstall (Haus 18)"},"geometry":{"type":"Point","coordinates":[9.543258,54.511871]}},{"type":"Feature","properties":{"id":"stehender-weiblicher-torso","name":"Stehender weiblicher Torso","cat":"denkmal","kulturdenkmal":true,"kulturdenkmal_text":"Baudenkmal: Schloss Gottorf"},"geometry":{"type":"Point","coordinates":[9.540522,54.512376]}},{"type":"Feature","properties":{"id":"tempel","name":"Tempel","cat":"denkmal","kulturdenkmal":true,"kulturdenkmal_text":"Baudenkmal: Antentempel"},"geometry":{"type":"Point","coordinates":[9.541716,54.516908]}},{"type":"Feature","properties":{"id":"thyraburg","name":"Thyraburg","cat":"wikinger","wikidata":"Q12339340","wikipedia":"de:Dannewerk#Thyraburg","text":"Dannewerk ist eine Gemeinde im Kreis Schleswig-Flensburg in Schleswig-Holstein. Im Gemeindegebiet befinden sich Teile des Archäologischen Denkmals der historischen mittelalterlichen dänischen Grenzbefestigungsanlage Danewerk.","text_source":"Wikipedia (CC BY-SA 4.0)","wiki_url":"https://de.wikipedia.org/wiki/Dannewerk"},"geometry":{"type":"Point","coordinates":[9.506545,54.489207]}},{"type":"Feature","properties":{"id":"tieraehnliche-form","name":"Tierähnliche Form","cat":"denkmal","kulturdenkmal":true,"kulturdenkmal_text":"Baudenkmal: Kreuzstall (Haus 18)"},"geometry":{"type":"Point","coordinates":[9.542493,54.512003]}},{"type":"Feature","properties":{"id":"torso","name":"Torso","cat":"denkmal","kulturdenkmal":true,"kulturdenkmal_text":"Baudenkmal: ehem. Waffenschmiede"},"geometry":{"type":"Point","coordinates":[9.541748,54.5125]}},{"type":"Feature","properties":{"id":"tyr","name":"Tyr","cat":"denkmal","kulturdenkmal":true,"kulturdenkmal_text":"Baudenkmal: Wohnhaus"},"geometry":{"type":"Point","coordinates":[9.553445,54.51479]}},{"type":"Feature","properties":{"id":"toepferei-muehlenhof","name":"Töpferei Mühlenhof","cat":"technik","website":"https://www.keramik-helgabuhk.de/Muehle.html","kulturdenkmal":true,"kulturdenkmal_text":"Baudenkmal: Windmühle"},"geometry":{"type":"Point","coordinates":[9.600437,54.503209]}},{"type":"Feature","properties":{"id":"unseren-gefallenen-1939-1945","name":"Unseren Gefallenen 1939-1945","cat":"denkmal","kulturdenkmal":true,"kulturdenkmal_text":"Baudenkmal: Wohnhaus"},"geometry":{"type":"Point","coordinates":[9.574334,54.512595]}},{"type":"Feature","properties":{"id":"verbindungswall","name":"Verbindungswall","cat":"wikinger"},"geometry":{"type":"Point","coordinates":[9.558199,54.490595]}},{"type":"Feature","properties":{"id":"waldkapelle","name":"Waldkapelle","cat":"kirche","kulturdenkmal":true,"kulturdenkmal_text":"Baudenkmal: Norwegische Kapelle mit Ausstattung"},"geometry":{"type":"Point","coordinates":[9.685954,54.487527]}},{"type":"Feature","properties":{"id":"wassermuehle-schaalby","name":"Wassermühle Schaalby","cat":"museum","kulturdenkmal":true,"kulturdenkmal_text":"Baudenkmal: Wassermühle"},"geometry":{"type":"Point","coordinates":[9.63895,54.546622]}},{"type":"Feature","properties":{"id":"wikinger-museum-haithabu","name":"Wikinger-Museum Haithabu","cat":"wikinger","wikidata":"Q314723","wikipedia":"de:Wikinger-Museum Haithabu","website":"https://haithabu.de/","text":"Am Fundort von Haithabu zeigt das Museum Originalfunde und rekonstruierte Wikingerhäuser direkt am Wasser.","text_source":"Redaktion dieschlei.de","wiki_url":"https://de.wikipedia.org/wiki/Wikinger_Museum_Haithabu","img":"https://upload.wikimedia.org/wikipedia/commons/thumb/f/fa/Haithabu_Anlage.jpg/330px-Haithabu_Anlage.jpg","img_credit":"Siegbert Brey","img_license":"CC BY-SA 4.0","highlight":true},"geometry":{"type":"Point","coordinates":[9.569437,54.497107]}},{"type":"Feature","properties":{"id":"wikingerhaeuser-haithabu","name":"Wikingerhäuser Haithabu","cat":"wikinger","wikidata":"Q314723","wikipedia":"de:Wikinger-Museum Haithabu","website":"https://haithabu.de","text":"Das Wikinger Museum Haithabu in Busdorf bei Schleswig widmet sich der Archäologie und der Geschichte der Siedlung Haithabu, die etwa 600 Meter weiter südlich im Frühmittelalter entstand und im Jahr 1066 zerstört wurde. Das Museum wurde im Jahr 1985 eröffnet. Es gehört zur Stiftung Schleswig-Holsteinische Landesmuseen.","text_source":"Wikipedia (CC BY-SA 4.0)","wiki_url":"https://de.wikipedia.org/wiki/Wikinger_Museum_Haithabu","img":"https://upload.wikimedia.org/wikipedia/commons/thumb/f/fa/Haithabu_Anlage.jpg/330px-Haithabu_Anlage.jpg","img_credit":"Siegbert Brey","img_license":"CC BY-SA 4.0"},"geometry":{"type":"Point","coordinates":[9.56758,54.49124]}},{"type":"Feature","properties":{"id":"windmuehle-lindaumuehlenholz","name":"Windmühle Lindaumühlenholz","cat":"technik","wikidata":"Q58395727","kulturdenkmal":true,"kulturdenkmal_text":"Baudenkmal: Windmühle"},"geometry":{"type":"Point","coordinates":[9.802857,54.592515]}}]}