{"type":"FeatureCollection","features":[{"type":"Feature","properties":{"id":"1-weltkrieg","name":"1. Weltkrieg","cat":"denkmal"},"geometry":{"type":"Point","coordinates":[9.574287,54.512496]}},{"type":"Feature","properties":{"id":"3-d-incident-version-1","name":"3-D Incident Version 1","cat":"denkmal"},"geometry":{"type":"Point","coordinates":[9.539942,54.518472]}},{"type":"Feature","properties":{"id":"adventgemeinde-schleswig","name":"Adventgemeinde Schleswig","cat":"kirche","website":"https://www.adventisten.de/kirche-vor-ort/adventgemeinde/lo/schleswig/"},"geometry":{"type":"Point","coordinates":[9.545893,54.51703]}},{"type":"Feature","properties":{"id":"ahmadiyya-muslim-jamaat","name":"Ahmadiyya Muslim Jamaat","cat":"kirche"},"geometry":{"type":"Point","coordinates":[9.54319,54.499713]}},{"type":"Feature","properties":{"id":"ahrensberg-louisenlunder-guebyer-totengilde","name":"Ahrensberg-Louisenlunder Gübyer Totengilde","cat":"denkmal"},"geometry":{"type":"Point","coordinates":[9.681783,54.4842]}},{"type":"Feature","properties":{"id":"amanda","name":"Amanda","cat":"technik","wikidata":"Q12301255","wikipedia":"de:Mühle Amanda"},"geometry":{"type":"Point","coordinates":[9.926117,54.660925]}},{"type":"Feature","properties":{"id":"angelner-dampfeisenbahn","name":"Angelner Dampfeisenbahn","cat":"museum","website":"https://www.angelner-dampfeisenbahn.de/"},"geometry":{"type":"Point","coordinates":[9.9346,54.658137]}},{"type":"Feature","properties":{"id":"ansgar","name":"Ansgar","cat":"denkmal"},"geometry":{"type":"Point","coordinates":[9.569949,54.499535]}},{"type":"Feature","properties":{"id":"ansgar-memoria","name":"Ansgar Memoria","cat":"denkmal","wikidata":"Q94694558"},"geometry":{"type":"Point","coordinates":[9.570645,54.499539]}},{"type":"Feature","properties":{"id":"archaeologisches-landesamt-schleswig-holstein","name":"Archäologisches Landesamt Schleswig-Holstein","cat":"schloss","wikidata":"Q58402042","wikipedia":"da:Annettehøj","website":"http://www.alsh.de/"},"geometry":{"type":"Point","coordinates":[9.524729,54.506241]}},{"type":"Feature","properties":{"id":"asmus-jacobus-carstens","name":"Asmus Jacobus Carstens","cat":"denkmal"},"geometry":{"type":"Point","coordinates":[9.571459,54.521883]}},{"type":"Feature","properties":{"id":"auferstehungskirche","name":"Auferstehungskirche","cat":"kirche"},"geometry":{"type":"Point","coordinates":[9.538122,54.524442]}},{"type":"Feature","properties":{"id":"auferstehungskirche-2","name":"Auferstehungskirche","cat":"kirche"},"geometry":{"type":"Point","coordinates":[9.948038,54.661909]}},{"type":"Feature","properties":{"id":"aussichtspunkt-nabu","name":"Aussichtspunkt NABU","cat":"denkmal"},"geometry":{"type":"Point","coordinates":[9.551297,54.537834]}},{"type":"Feature","properties":{"id":"aussichtsturm-schleswig","name":"Aussichtsturm Schleswig","cat":"denkmal","wikidata":"Q105282061"},"geometry":{"type":"Point","coordinates":[9.561907,54.513358]}},{"type":"Feature","properties":{"id":"automuseum-collection-schwansen","name":"Automuseum Collection Schwansen","cat":"museum","website":"https://collection-schwansen.de/"},"geometry":{"type":"Point","coordinates":[9.903617,54.58362]}},{"type":"Feature","properties":{"id":"befreiungsdenkmal","name":"Befreiungsdenkmal","cat":"denkmal"},"geometry":{"type":"Point","coordinates":[9.547209,54.512666]}},{"type":"Feature","properties":{"id":"bellmann-chemnitz","name":"Bellmann Chemnitz","cat":"denkmal"},"geometry":{"type":"Point","coordinates":[9.551367,54.516239]}},{"type":"Feature","properties":{"id":"brueggemann-altar","name":"Brüggemann Altar","cat":"denkmal"},"geometry":{"type":"Point","coordinates":[9.569754,54.513727]}},{"type":"Feature","properties":{"id":"camii","name":"Camii","cat":"kirche"},"geometry":{"type":"Point","coordinates":[9.54103,54.504638]}},{"type":"Feature","properties":{"id":"das-schleswig-holsteinsche-draconer-regiment-o-13","name":"Das Schleswig-Holsteinsche Draconer-Regiment № 13","cat":"denkmal"},"geometry":{"type":"Point","coordinates":[9.543061,54.52008]}},{"type":"Feature","properties":{"id":"deichverstaerkung-2002-2004","name":"Deichverstärkung 2002-2004","cat":"denkmal"},"geometry":{"type":"Point","coordinates":[9.995106,54.682923]}},{"type":"Feature","properties":{"id":"denkmal-fuer-die-gefallenen-beider-weltkriege","name":"Denkmal für die Gefallenen beider Weltkriege","cat":"denkmal"},"geometry":{"type":"Point","coordinates":[9.989227,54.6833]}},{"type":"Feature","properties":{"id":"denkmal-fuer-die-kaiser-wilhelm-i-und-friedrich-iii","name":"Denkmal für die Kaiser Wilhelm I und Friedrich III","cat":"denkmal"},"geometry":{"type":"Point","coordinates":[9.933624,54.661816]}},{"type":"Feature","properties":{"id":"denkmal-zur-erinnerung-an-der-deutsch-franzoesischen-krieg-1870-71","name":"Denkmal zur Erinnerung an der Deutsch-Französischen Krieg 1870/71","cat":"denkmal"},"geometry":{"type":"Point","coordinates":[9.933647,54.661439]}},{"type":"Feature","properties":{"id":"denkmaeler-fuer-gefallene-des-deutsch-daenischen-krieges","name":"Denkmäler für Gefallene des deutsch-dänischen Krieges","cat":"denkmal"},"geometry":{"type":"Point","coordinates":[9.509008,54.529663]}},{"type":"Feature","properties":{"id":"der-fischer","name":"Der Fischer","cat":"denkmal"},"geometry":{"type":"Point","coordinates":[9.56709,54.513579]}},{"type":"Feature","properties":{"id":"der-gehenkte","name":"Der Gehenkte","cat":"denkmal","wikidata":"Q130478127"},"geometry":{"type":"Point","coordinates":[9.54156,54.508299]}},{"type":"Feature","properties":{"id":"der-riese-von-ulsnis","name":"Der Riese von Ulsnis","cat":"denkmal"},"geometry":{"type":"Point","coordinates":[9.747054,54.568794]}},{"type":"Feature","properties":{"id":"desdemona","name":"Desdemona","cat":"denkmal"},"geometry":{"type":"Point","coordinates":[9.541484,54.512676]}},{"type":"Feature","properties":{"id":"deutsche-einheit","name":"Deutsche Einheit","cat":"denkmal"},"geometry":{"type":"Point","coordinates":[9.626544,54.548784]}},{"type":"Feature","properties":{"id":"di-testa-ii","name":"Di Testa II","cat":"denkmal"},"geometry":{"type":"Point","coordinates":[9.540619,54.519981]}},{"type":"Feature","properties":{"id":"dorfmuseum","name":"Dorfmuseum","cat":"museum","wikidata":"Q76638679"},"geometry":{"type":"Point","coordinates":[9.705637,54.536611]}},{"type":"Feature","properties":{"id":"dorfmuseum-ulsnis","name":"Dorfmuseum Ulsnis","cat":"museum","wikidata":"Q76639001","website":"https://www.museen-sh.de/Museum/DE-MUS-744418"},"geometry":{"type":"Point","coordinates":[9.74838,54.569053]}},{"type":"Feature","properties":{"id":"dreifaltigkeitskirche","name":"Dreifaltigkeitskirche","cat":"kirche","wikidata":"Q55088525","wikipedia":"de:Dreifaltigkeitskirche (Schleswig)"},"geometry":{"type":"Point","coordinates":[9.543897,54.501165]}},{"type":"Feature","properties":{"id":"dyrill","name":"Dyrill","cat":"denkmal"},"geometry":{"type":"Point","coordinates":[9.540677,54.518428]}},{"type":"Feature","properties":{"id":"ehrenmal","name":"Ehrenmal","cat":"denkmal"},"geometry":{"type":"Point","coordinates":[9.665193,54.45977]}},{"type":"Feature","properties":{"id":"ehrenmal-2","name":"Ehrenmal","cat":"denkmal"},"geometry":{"type":"Point","coordinates":[9.577086,54.471806]}},{"type":"Feature","properties":{"id":"ekenisser-schleiblick","name":"Ekenisser Schleiblick","cat":"denkmal"},"geometry":{"type":"Point","coordinates":[9.859419,54.615891]}},{"type":"Feature","properties":{"id":"elli","name":"Elli","cat":"denkmal"},"geometry":{"type":"Point","coordinates":[9.937943,54.659796]}},{"type":"Feature","properties":{"id":"erikstein","name":"Erikstein","cat":"wikinger","wikidata":"Q873042","wikipedia":"de:Runensteine von Haithabu","website":"http://www.suehnekreuz.de/holstein/wedelspang.htm#1"},"geometry":{"type":"Point","coordinates":[9.563725,54.484682]}},{"type":"Feature","properties":{"id":"erscheinung","name":"Erscheinung","cat":"denkmal"},"geometry":{"type":"Point","coordinates":[9.540751,54.512329]}},{"type":"Feature","properties":{"id":"eva-und-ihre-kinder","name":"Eva und ihre Kinder","cat":"denkmal"},"geometry":{"type":"Point","coordinates":[9.540445,54.512229]}},{"type":"Feature","properties":{"id":"evangelisch-freikirchliche-gemeinde-baptisten","name":"Evangelisch-Freikirchliche Gemeinde (Baptisten)","cat":"kirche"},"geometry":{"type":"Point","coordinates":[9.926779,54.658665]}},{"type":"Feature","properties":{"id":"evangelisch-freikirchliche-gemeinde-schleswig","name":"Evangelisch-Freikirchliche Gemeinde Schleswig","cat":"kirche","wikidata":"Q137767394","website":"https://www.efg-schleswig.de"},"geometry":{"type":"Point","coordinates":[9.557489,54.515851]}},{"type":"Feature","properties":{"id":"f-104","name":"F-104","cat":"denkmal"},"geometry":{"type":"Point","coordinates":[9.538645,54.471936]}},{"type":"Feature","properties":{"id":"fernsehturm-schleswig-stadt","name":"Fernsehturm Schleswig-Stadt","cat":"denkmal","wikidata":"Q1363849"},"geometry":{"type":"Point","coordinates":[9.529105,54.527791]}},{"type":"Feature","properties":{"id":"fischer","name":"Fischer","cat":"denkmal","wikidata":"Q113620328"},"geometry":{"type":"Point","coordinates":[9.934279,54.659501]}},{"type":"Feature","properties":{"id":"flensburger-venus","name":"Flensburger Venus","cat":"denkmal"},"geometry":{"type":"Point","coordinates":[9.541139,54.512422]}},{"type":"Feature","properties":{"id":"freiluftwaldkapelle-st-hugin-munin","name":"Freiluftwaldkapelle St.Hugin Munin","cat":"kirche"},"geometry":{"type":"Point","coordinates":[9.525628,54.510766]}},{"type":"Feature","properties":{"id":"freimaurerturm","name":"Freimaurerturm","cat":"denkmal"},"geometry":{"type":"Point","coordinates":[9.680573,54.494052]}},{"type":"Feature","properties":{"id":"freyja","name":"Freyja","cat":"denkmal"},"geometry":{"type":"Point","coordinates":[9.553358,54.514762]}},{"type":"Feature","properties":{"id":"friedenseiche","name":"Friedenseiche","cat":"denkmal"},"geometry":{"type":"Point","coordinates":[9.799964,54.594421]}},{"type":"Feature","properties":{"id":"galerie-der-klassischen-moderne","name":"Galerie der klassischen Moderne","cat":"museum","website":"https://museum-fuer-kunst-und-kulturgeschichte.de/de/galerie-der-moderne"},"geometry":{"type":"Point","coordinates":[9.541842,54.511664]}},{"type":"Feature","properties":{"id":"galionsfigur-gorch-fock","name":"Galionsfigur Gorch Fock","cat":"denkmal"},"geometry":{"type":"Point","coordinates":[9.938296,54.659873]}},{"type":"Feature","properties":{"id":"gedenkstein-1848-98","name":"Gedenkstein 1848-98","cat":"denkmal"},"geometry":{"type":"Point","coordinates":[9.815013,54.595915]}},{"type":"Feature","properties":{"id":"gedenkstein-aufhebung-leibeigenschaft","name":"Gedenkstein Aufhebung Leibeigenschaft","cat":"denkmal"},"geometry":{"type":"Point","coordinates":[9.975151,54.623193]}},{"type":"Feature","properties":{"id":"gefallene-daenen-und-preussen-1850","name":"Gefallene Dänen und Preußen 1850","cat":"denkmal"},"geometry":{"type":"Point","coordinates":[9.707715,54.534689]}},{"type":"Feature","properties":{"id":"geflecht","name":"Geflecht","cat":"denkmal"},"geometry":{"type":"Point","coordinates":[9.540428,54.51869]}},{"type":"Feature","properties":{"id":"gemeinde-schaalby-zusammenlegung-1974","name":"Gemeinde Schaalby / Zusammenlegung 1974","cat":"denkmal"},"geometry":{"type":"Point","coordinates":[9.626649,54.548808]}},{"type":"Feature","properties":{"id":"gemeinschaft-in-der-evangelischen-kirche","name":"Gemeinschaft in der Evangelischen Kirche","cat":"kirche"},"geometry":{"type":"Point","coordinates":[9.796559,54.593363]}},{"type":"Feature","properties":{"id":"globushaus","name":"Globushaus","cat":"museum","wikidata":"Q535891","wikipedia":"de:Gottorfer Riesenglobus"},"geometry":{"type":"Point","coordinates":[9.54015,54.517649]}},{"type":"Feature","properties":{"id":"goldwaescherin","name":"Goldwäscherin","cat":"denkmal"},"geometry":{"type":"Point","coordinates":[9.541417,54.511038]}},{"type":"Feature","properties":{"id":"grosser-sigtryggstein","name":"Großer Sigtryggstein","cat":"wikinger","wikidata":"Q101479010","wikipedia":"de:Runensteine von Haithabu","website":"http://www.suehnekreuz.de/holstein/wedelspang.htm#2"},"geometry":{"type":"Point","coordinates":[9.574597,54.485075]}},{"type":"Feature","properties":{"id":"grosser-steinvogel","name":"Großer Steinvogel","cat":"denkmal"},"geometry":{"type":"Point","coordinates":[9.93309,54.63252]}},{"type":"Feature","properties":{"id":"grosssteingrab-buestorf-4","name":"Großsteingrab Büstorf 4","cat":"wikinger","wikidata":"Q64995111","wikipedia":"de:Großsteingräber bei Büstorf"},"geometry":{"type":"Point","coordinates":[9.803561,54.559406]}},{"type":"Feature","properties":{"id":"grosssteingrab-gammelby-eichtal-1","name":"Großsteingrab Gammelby-Eichtal 1","cat":"wikinger","wikidata":"Q65237343","wikipedia":"de:Großsteingräber bei Gammelby-Eichtal"},"geometry":{"type":"Point","coordinates":[9.793167,54.507476]}},{"type":"Feature","properties":{"id":"grosssteingrab-missunde","name":"Großsteingrab Missunde","cat":"wikinger","wikidata":"Q1493475","wikipedia":"de:Ganggrab von Missunde"},"geometry":{"type":"Point","coordinates":[9.721265,54.519592]}},{"type":"Feature","properties":{"id":"grosssteingrab-olpenitz","name":"Großsteingrab Olpenitz","cat":"wikinger","wikidata":"Q1652319","wikipedia":"de:Hünenbett Olpenitz"},"geometry":{"type":"Point","coordinates":[10.002285,54.65225]}},{"type":"Feature","properties":{"id":"gruntal","name":"Gruntal","cat":"schloss"},"geometry":{"type":"Point","coordinates":[9.971488,54.594097]}},{"type":"Feature","properties":{"id":"groedersby-muehle","name":"Grödersby Mühle","cat":"technik"},"geometry":{"type":"Point","coordinates":[9.907394,54.635224]}},{"type":"Feature","properties":{"id":"gut-oehe","name":"Gut Oehe","cat":"schloss","wikidata":"Q113145387"},"geometry":{"type":"Point","coordinates":[10.002979,54.707076]}},{"type":"Feature","properties":{"id":"gut-priesholz","name":"Gut Priesholz","cat":"schloss","wikidata":"Q58396258"},"geometry":{"type":"Point","coordinates":[9.913134,54.702959]}},{"type":"Feature","properties":{"id":"haddebyer-museumshof","name":"Haddebyer Museumshof","cat":"museum","website":"https://www.busdorf-geschichtsverein.de/seite/776863/vorstellung.html"},"geometry":{"type":"Point","coordinates":[9.581198,54.471444]}},{"type":"Feature","properties":{"id":"handlike-tree-figura-ultima","name":"Handlike Tree – Figura Ultima","cat":"denkmal"},"geometry":{"type":"Point","coordinates":[9.540875,54.512737]}},{"type":"Feature","properties":{"id":"hegeberg","name":"Hegeberg","cat":"denkmal"},"geometry":{"type":"Point","coordinates":[10.007273,54.690684]}},{"type":"Feature","properties":{"id":"heimatmuseum-rieseby","name":"Heimatmuseum Rieseby","cat":"museum"},"geometry":{"type":"Point","coordinates":[9.803325,54.543092]}},{"type":"Feature","properties":{"id":"heringszaun-kappeln","name":"Heringszaun Kappeln","cat":"denkmal"},"geometry":{"type":"Point","coordinates":[9.937134,54.661037]}},{"type":"Feature","properties":{"id":"herkulesgruppe","name":"Herkulesgruppe","cat":"denkmal"},"geometry":{"type":"Point","coordinates":[9.540022,54.516878]}},{"type":"Feature","properties":{"id":"herrenhaus-bienebek","name":"Herrenhaus Bienebek","cat":"schloss"},"geometry":{"type":"Point","coordinates":[9.887833,54.603265]}},{"type":"Feature","properties":{"id":"herrenhaus-gut-stubbe","name":"Herrenhaus Gut Stubbe","cat":"schloss","wikidata":"Q28197590","wikipedia":"de:Gut Stubbe"},"geometry":{"type":"Point","coordinates":[9.821549,54.576156]}},{"type":"Feature","properties":{"id":"herrenhaus-karlsburg","name":"Herrenhaus Karlsburg","cat":"schloss","wikidata":"Q1444760","wikipedia":"de:Herrenhaus Carlsburg"},"geometry":{"type":"Point","coordinates":[9.952701,54.618324]}},{"type":"Feature","properties":{"id":"historisches-saegewerk","name":"Historisches Sägewerk","cat":"museum"},"geometry":{"type":"Point","coordinates":[9.926188,54.661026]}},{"type":"Feature","properties":{"id":"holm-museum","name":"Holm-Museum","cat":"museum","wikidata":"Q76638957"},"geometry":{"type":"Point","coordinates":[9.573522,54.512988]}},{"type":"Feature","properties":{"id":"hubertusquelle","name":"Hubertusquelle","cat":"denkmal"},"geometry":{"type":"Point","coordinates":[9.524742,54.511134]}},{"type":"Feature","properties":{"id":"juergensburg","name":"Jürgensburg","cat":"wikinger"},"geometry":{"type":"Point","coordinates":[9.562514,54.508105]}},{"type":"Feature","properties":{"id":"kap-der-freiheit","name":"Kap der Freiheit","cat":"denkmal"},"geometry":{"type":"Point","coordinates":[9.586677,54.510288]}},{"type":"Feature","properties":{"id":"kapelle-friedhof-holm","name":"Kapelle Friedhof Holm","cat":"kirche","wikidata":"Q58402379"},"geometry":{"type":"Point","coordinates":[9.574687,54.512462]}},{"type":"Feature","properties":{"id":"kirche-karby","name":"Kirche Karby","cat":"kirche","wikidata":"Q58396613","wikipedia":"de:Kirche Karby"},"geometry":{"type":"Point","coordinates":[9.975942,54.623153]}},{"type":"Feature","properties":{"id":"kirche-sieseby","name":"Kirche Sieseby","cat":"kirche","wikidata":"Q17480797"},"geometry":{"type":"Point","coordinates":[9.860647,54.594548]}},{"type":"Feature","properties":{"id":"kirche-svans","name":"Kirche Svansø","cat":"kirche","website":"https://www.kirche-svansoe.de/"},"geometry":{"type":"Point","coordinates":[9.918311,54.600561]}},{"type":"Feature","properties":{"id":"kreuzkirche","name":"Kreuzkirche","cat":"kirche","wikidata":"Q58406534"},"geometry":{"type":"Point","coordinates":[9.6909,54.482384]}},{"type":"Feature","properties":{"id":"kriegerdenkmal","name":"Kriegerdenkmal","cat":"denkmal"},"geometry":{"type":"Point","coordinates":[9.707445,54.534805]}},{"type":"Feature","properties":{"id":"kriegerdenkmal-2","name":"Kriegerdenkmal","cat":"denkmal"},"geometry":{"type":"Point","coordinates":[9.656613,54.54658]}},{"type":"Feature","properties":{"id":"kriegerdenkmal-3","name":"Kriegerdenkmal","cat":"denkmal"},"geometry":{"type":"Point","coordinates":[9.979143,54.634634]}},{"type":"Feature","properties":{"id":"kriegerdenkmal-1870-71","name":"Kriegerdenkmal 1870/71","cat":"denkmal"},"geometry":{"type":"Point","coordinates":[9.975916,54.62301]}},{"type":"Feature","properties":{"id":"kriegerdenkmal-1914-18-1939-45","name":"Kriegerdenkmal 1914-18 1939-45","cat":"denkmal"},"geometry":{"type":"Point","coordinates":[9.81878,54.612537]}},{"type":"Feature","properties":{"id":"koenigreichssaal-jehovas-zeugen","name":"Königreichssaal Jehovas Zeugen","cat":"kirche","website":"https://www.jw.org/de/"},"geometry":{"type":"Point","coordinates":[9.535187,54.500098]}},{"type":"Feature","properties":{"id":"koenigreichssaal-jehovas-zeugen-2","name":"Königreichssaal Jehovas Zeugen","cat":"kirche","website":"https://www.jw.org/de/"},"geometry":{"type":"Point","coordinates":[9.918128,54.664439]}},{"type":"Feature","properties":{"id":"koenigshuegel","name":"Königshügel","cat":"wikinger"},"geometry":{"type":"Point","coordinates":[9.564444,54.477361]}},{"type":"Feature","properties":{"id":"landesmuseum-schleswig-holstein","name":"Landesmuseum Schleswig-Holstein","cat":"museum","wikidata":"Q39695701","wikipedia":"de:Landesmuseum für Kunst und Kulturgeschichte (Schleswig)","website":"https://museum-fuer-kunst-und-kulturgeschichte.de"},"geometry":{"type":"Point","coordinates":[9.541366,54.511668]}},{"type":"Feature","properties":{"id":"leuchtturm-schleimuende","name":"Leuchtturm Schleimünde","cat":"technik","wikidata":"Q19979499"},"geometry":{"type":"Point","coordinates":[10.03627,54.671431]}},{"type":"Feature","properties":{"id":"louisensaeule","name":"Louisensäule","cat":"denkmal"},"geometry":{"type":"Point","coordinates":[9.677401,54.493726]}},{"type":"Feature","properties":{"id":"lutherhaus","name":"Lutherhaus","cat":"kirche","website":"https://www.gemeinschaft-schleswig.de/"},"geometry":{"type":"Point","coordinates":[9.543007,54.501331]}},{"type":"Feature","properties":{"id":"maasholm-2018","name":"Maasholm 2018","cat":"denkmal"},"geometry":{"type":"Point","coordinates":[9.998249,54.710147]}},{"type":"Feature","properties":{"id":"margarethenwall","name":"Margarethenwall","cat":"wikinger","wikidata":"Q12325958"},"geometry":{"type":"Point","coordinates":[9.545857,54.490828]}},{"type":"Feature","properties":{"id":"margarethenwall-2","name":"Margarethenwall","cat":"wikinger"},"geometry":{"type":"Point","coordinates":[9.527834,54.492424]}},{"type":"Feature","properties":{"id":"mariensaeule","name":"Mariensäule","cat":"denkmal"},"geometry":{"type":"Point","coordinates":[9.681868,54.493274]}},{"type":"Feature","properties":{"id":"missunde-selfie-standort","name":"Missunde Selfie Standort","cat":"denkmal"},"geometry":{"type":"Point","coordinates":[9.71364,54.516563]}},{"type":"Feature","properties":{"id":"museum-bauerngarten","name":"Museum Bauerngarten","cat":"museum"},"geometry":{"type":"Point","coordinates":[9.735161,54.553337]}},{"type":"Feature","properties":{"id":"museum-fuer-outsiderkunst","name":"Museum für Outsiderkunst","cat":"museum","wikidata":"Q76638962","website":"https://www.stadtmuseum-schleswig.de/museum-fuer-outsiderkunst"},"geometry":{"type":"Point","coordinates":[9.559284,54.515738]}},{"type":"Feature","properties":{"id":"museumshafen-kappeln","name":"Museumshafen Kappeln","cat":"museum","website":"https://www.museumshafen-kappeln.de/"},"geometry":{"type":"Point","coordinates":[9.936142,54.654352]}},{"type":"Feature","properties":{"id":"muehle-anna","name":"Mühle Anna","cat":"technik","wikidata":"Q58405034","website":"https://www.muehle-anna.de/"},"geometry":{"type":"Point","coordinates":[9.803395,54.543165]}},{"type":"Feature","properties":{"id":"neuapostolische-kirche","name":"Neuapostolische Kirche","cat":"kirche"},"geometry":{"type":"Point","coordinates":[9.544515,54.508425]}},{"type":"Feature","properties":{"id":"neuapostolische-kirche-2","name":"Neuapostolische Kirche","cat":"kirche","website":"http://www.nak-kappeln.de/"},"geometry":{"type":"Point","coordinates":[9.927216,54.655277]}},{"type":"Feature","properties":{"id":"nicola","name":"Nicola","cat":"technik","website":"http://muehle-nicola.de"},"geometry":{"type":"Point","coordinates":[9.596041,54.518469]}},{"type":"Feature","properties":{"id":"paar","name":"Paar","cat":"denkmal"},"geometry":{"type":"Point","coordinates":[9.928217,54.627955]}},{"type":"Feature","properties":{"id":"pauluskirche","name":"Pauluskirche","cat":"kirche"},"geometry":{"type":"Point","coordinates":[9.555895,54.525849]}},{"type":"Feature","properties":{"id":"peter-aal","name":"Peter Aal","cat":"denkmal"},"geometry":{"type":"Point","coordinates":[9.992956,54.68242]}},{"type":"Feature","properties":{"id":"phantastischer-spaziergang","name":"Phantastischer Spaziergang","cat":"denkmal"},"geometry":{"type":"Point","coordinates":[9.544098,54.512068]}},{"type":"Feature","properties":{"id":"quadrolog","name":"Quadrolog","cat":"denkmal"},"geometry":{"type":"Point","coordinates":[9.539525,54.511387]}},{"type":"Feature","properties":{"id":"rabelsund","name":"Rabelsund","cat":"denkmal"},"geometry":{"type":"Point","coordinates":[9.956229,54.677797]}},{"type":"Feature","properties":{"id":"ramm-ii","name":"Ramm II","cat":"denkmal"},"geometry":{"type":"Point","coordinates":[9.540767,54.511379]}},{"type":"Feature","properties":{"id":"rechteckdolmen-von-huesby","name":"Rechteckdolmen von Hüsby","cat":"wikinger","wikidata":"Q1349411","wikipedia":"de:Rechteckdolmen von Hüsby"},"geometry":{"type":"Point","coordinates":[9.487038,54.501385]}},{"type":"Feature","properties":{"id":"reiterregiment-14","name":"Reiterregiment 14","cat":"denkmal"},"geometry":{"type":"Point","coordinates":[9.542067,54.507446]}},{"type":"Feature","properties":{"id":"ringwall","name":"Ringwall","cat":"wikinger"},"geometry":{"type":"Point","coordinates":[9.568238,54.488995]}},{"type":"Feature","properties":{"id":"ringwall-2","name":"Ringwall","cat":"wikinger"},"geometry":{"type":"Point","coordinates":[9.563444,54.491123]}},{"type":"Feature","properties":{"id":"ringwall-3","name":"Ringwall","cat":"wikinger"},"geometry":{"type":"Point","coordinates":[9.56479,54.494136]}},{"type":"Feature","properties":{"id":"sankt-andreas","name":"Sankt Andreas","cat":"kirche","wikidata":"Q12314948","wikipedia":"de:St. Andreas Haddeby (Busdorf)"},"geometry":{"type":"Point","coordinates":[9.570079,54.500432]}},{"type":"Feature","properties":{"id":"sankt-andreas-2","name":"Sankt Andreas","cat":"kirche","wikidata":"Q58395870"},"geometry":{"type":"Point","coordinates":[9.708039,54.534642]}},{"type":"Feature","properties":{"id":"sankt-ansgar","name":"Sankt Ansgar","cat":"kirche","wikidata":"Q58402210"},"geometry":{"type":"Point","coordinates":[9.551363,54.513307]}},{"type":"Feature","properties":{"id":"sankt-jakobus-zu-moldenit","name":"Sankt Jakobus zu Moldenit","cat":"kirche","wikidata":"Q58395609"},"geometry":{"type":"Point","coordinates":[9.616039,54.543727]}},{"type":"Feature","properties":{"id":"sankt-marien","name":"Sankt Marien","cat":"kirche","wikidata":"Q58395612"},"geometry":{"type":"Point","coordinates":[9.657413,54.546487]}},{"type":"Feature","properties":{"id":"sankt-marien-2","name":"Sankt Marien","cat":"kirche","wikidata":"Q58395745"},"geometry":{"type":"Point","coordinates":[9.819299,54.613074]}},{"type":"Feature","properties":{"id":"sankt-marien-3","name":"Sankt Marien","cat":"kirche","wikidata":"Q14912421","wikipedia":"de:St.-Marien-Kirche (Rabenkirchen)"},"geometry":{"type":"Point","coordinates":[9.85494,54.646864]}},{"type":"Feature","properties":{"id":"sankt-marien-4","name":"Sankt Marien","cat":"kirche","wikidata":"Q96761380","website":"https://pfarrei-stella-maris.de/Kappeln_Kirche-St.-Marien_2995"},"geometry":{"type":"Point","coordinates":[9.933561,54.664418]}},{"type":"Feature","properties":{"id":"sankt-nikolai","name":"Sankt Nikolai","cat":"kirche","wikidata":"Q2321896"},"geometry":{"type":"Point","coordinates":[9.933484,54.661606]}},{"type":"Feature","properties":{"id":"sankt-petri","name":"Sankt Petri","cat":"kirche","wikidata":"Q14541507","wikipedia":"de:St.-Petri-Kirche (Rieseby)"},"geometry":{"type":"Point","coordinates":[9.813634,54.542234]}},{"type":"Feature","properties":{"id":"sankt-petri-2","name":"Sankt Petri","cat":"kirche","wikidata":"Q96711270"},"geometry":{"type":"Point","coordinates":[9.989172,54.683439]}},{"type":"Feature","properties":{"id":"sankt-willehad","name":"Sankt Willehad","cat":"kirche","wikidata":"Q65032626","wikipedia":"de:St.-Wilhadi-Kirche (Ulsnis)"},"geometry":{"type":"Point","coordinates":[9.747483,54.573773]}},{"type":"Feature","properties":{"id":"sankt-johannis-kloster","name":"Sankt-Johannis-Kloster","cat":"kirche","wikidata":"Q58402010","website":"https://www.st-johannis-kloster.de/"},"geometry":{"type":"Point","coordinates":[9.578952,54.511775]}},{"type":"Feature","properties":{"id":"sankt-johannis-kloster-vor-schleswig","name":"Sankt-Johannis-Kloster vor Schleswig","cat":"kirche","wikipedia":"de:St.-Johannis-Kloster vor Schleswig","website":"https://www.st-johannis-kloster.de/"},"geometry":{"type":"Point","coordinates":[9.578507,54.511258]}},{"type":"Feature","properties":{"id":"sankt-laurentius-kirche","name":"Sankt-Laurentius-Kirche","cat":"kirche","wikidata":"Q14541505","wikipedia":"de:Laurentius-Kirche (Kosel)"},"geometry":{"type":"Point","coordinates":[9.751863,54.505509]}},{"type":"Feature","properties":{"id":"sankt-petri-dom-zu-schleswig","name":"Sankt-Petri-Dom zu Schleswig","cat":"kirche","wikidata":"Q523691","wikipedia":"de:Schleswiger Dom"},"geometry":{"type":"Point","coordinates":[9.569166,54.513696]}},{"type":"Feature","properties":{"id":"schifferkirche","name":"Schifferkirche","cat":"kirche","wikidata":"Q14912606"},"geometry":{"type":"Point","coordinates":[9.929108,54.628133]}},{"type":"Feature","properties":{"id":"schlachterturm","name":"Schlachterturm","cat":"denkmal"},"geometry":{"type":"Point","coordinates":[9.54042,54.51206]}},{"type":"Feature","properties":{"id":"schleswig-holm","name":"Schleswig Holm","cat":"denkmal"},"geometry":{"type":"Point","coordinates":[9.573442,54.513127]}},{"type":"Feature","properties":{"id":"schleswig-holstein-gedenkstein","name":"Schleswig-Holstein Gedenkstein","cat":"denkmal"},"geometry":{"type":"Point","coordinates":[9.818675,54.613461]}},{"type":"Feature","properties":{"id":"schleswig-holstein-gedenkstein-2","name":"Schleswig-Holstein-Gedenkstein","cat":"denkmal"},"geometry":{"type":"Point","coordinates":[9.97538,54.623333]}},{"type":"Feature","properties":{"id":"schleswigerin","name":"Schleswigerin","cat":"denkmal","wikidata":"Q113578702"},"geometry":{"type":"Point","coordinates":[9.550077,54.512289]}},{"type":"Feature","properties":{"id":"schloss-gottorf","name":"Schloss Gottorf","cat":"schloss","wikidata":"Q647987","wikipedia":"de:Schloss Gottorf","website":"http://www.schloss-gottorf.de/"},"geometry":{"type":"Point","coordinates":[9.541322,54.511847]}},{"type":"Feature","properties":{"id":"schloss-schoenhagen","name":"Schloss Schönhagen","cat":"schloss","wikidata":"Q1558672","wikipedia":"de:Schloss Schönhagen"},"geometry":{"type":"Point","coordinates":[10.022404,54.631639]}},{"type":"Feature","properties":{"id":"schlosskapelle","name":"Schlosskapelle","cat":"kirche"},"geometry":{"type":"Point","coordinates":[9.541124,54.511994]}},{"type":"Feature","properties":{"id":"schneiderhaken","name":"Schneiderhaken","cat":"denkmal"},"geometry":{"type":"Point","coordinates":[9.811445,54.580383]}},{"type":"Feature","properties":{"id":"schreitender","name":"Schreitender","cat":"denkmal"},"geometry":{"type":"Point","coordinates":[9.540958,54.512536]}},{"type":"Feature","properties":{"id":"segelsaeule","name":"Segelsäule","cat":"denkmal","wikidata":"Q127385567"},"geometry":{"type":"Point","coordinates":[9.54334,54.511999]}},{"type":"Feature","properties":{"id":"sehzeichen","name":"Sehzeichen","cat":"denkmal"},"geometry":{"type":"Point","coordinates":[9.587539,54.510126]}},{"type":"Feature","properties":{"id":"selker-muehle","name":"Selker Mühle","cat":"technik"},"geometry":{"type":"Point","coordinates":[9.581166,54.471494]}},{"type":"Feature","properties":{"id":"skarthestein","name":"Skarthestein","cat":"wikinger","wikidata":"Q10466540","wikipedia":"de:Runensteine von Haithabu#Der Skarthestein"},"geometry":{"type":"Point","coordinates":[9.545823,54.487998]}},{"type":"Feature","properties":{"id":"skulpturenpark","name":"Skulpturenpark","cat":"denkmal"},"geometry":{"type":"Point","coordinates":[9.93487,54.710592]}},{"type":"Feature","properties":{"id":"slessmynna","name":"Slessmynna","cat":"denkmal"},"geometry":{"type":"Point","coordinates":[9.995375,54.682122]}},{"type":"Feature","properties":{"id":"soldatengrab-von-1864","name":"Soldatengrab von 1864","cat":"denkmal"},"geometry":{"type":"Point","coordinates":[9.733479,54.517045]}},{"type":"Feature","properties":{"id":"stadtmuseum-schleswig","name":"Stadtmuseum Schleswig","cat":"museum","wikidata":"Q76638966","wikipedia":"de:Stadtmuseum Schleswig","website":"https://www.stadtmuseum-schleswig.de/"},"geometry":{"type":"Point","coordinates":[9.542157,54.505535]}},{"type":"Feature","properties":{"id":"stehende-figur","name":"Stehende Figur","cat":"denkmal"},"geometry":{"type":"Point","coordinates":[9.543258,54.511871]}},{"type":"Feature","properties":{"id":"stehender-weiblicher-torso","name":"Stehender weiblicher Torso","cat":"denkmal"},"geometry":{"type":"Point","coordinates":[9.540522,54.512376]}},{"type":"Feature","properties":{"id":"stele-maritim","name":"Stele Maritim","cat":"denkmal"},"geometry":{"type":"Point","coordinates":[9.542226,54.512308]}},{"type":"Feature","properties":{"id":"taktiler-stadtplan","name":"Taktiler Stadtplan","cat":"denkmal"},"geometry":{"type":"Point","coordinates":[9.932653,54.661724]}},{"type":"Feature","properties":{"id":"tempel","name":"Tempel","cat":"denkmal"},"geometry":{"type":"Point","coordinates":[9.541716,54.516908]}},{"type":"Feature","properties":{"id":"thyraburg","name":"Thyraburg","cat":"wikinger","wikidata":"Q12339340","wikipedia":"de:Dannewerk#Thyraburg"},"geometry":{"type":"Point","coordinates":[9.506545,54.489207]}},{"type":"Feature","properties":{"id":"tieraehnliche-form","name":"Tierähnliche Form","cat":"denkmal"},"geometry":{"type":"Point","coordinates":[9.542493,54.512003]}},{"type":"Feature","properties":{"id":"torso","name":"Torso","cat":"denkmal"},"geometry":{"type":"Point","coordinates":[9.541748,54.5125]}},{"type":"Feature","properties":{"id":"tyr","name":"Tyr","cat":"denkmal"},"geometry":{"type":"Point","coordinates":[9.553445,54.51479]}},{"type":"Feature","properties":{"id":"toepferei-muehlenhof","name":"Töpferei Mühlenhof","cat":"technik","website":"https://www.keramik-helgabuhk.de/Muehle.html"},"geometry":{"type":"Point","coordinates":[9.600437,54.503209]}},{"type":"Feature","properties":{"id":"unseren-gefallenen-1939-1945","name":"Unseren Gefallenen 1939-1945","cat":"denkmal"},"geometry":{"type":"Point","coordinates":[9.574334,54.512595]}},{"type":"Feature","properties":{"id":"verbindungswall","name":"Verbindungswall","cat":"wikinger"},"geometry":{"type":"Point","coordinates":[9.558199,54.490595]}},{"type":"Feature","properties":{"id":"verlauf-10-meridian","name":"Verlauf 10. Meridian","cat":"denkmal"},"geometry":{"type":"Point","coordinates":[10.007438,54.690762]}},{"type":"Feature","properties":{"id":"waldkapelle","name":"Waldkapelle","cat":"kirche"},"geometry":{"type":"Point","coordinates":[9.685954,54.487527]}},{"type":"Feature","properties":{"id":"wassermuehle","name":"Wassermühle","cat":"denkmal"},"geometry":{"type":"Point","coordinates":[9.567493,54.519296]}},{"type":"Feature","properties":{"id":"wassermuehle-schaalby","name":"Wassermühle Schaalby","cat":"museum"},"geometry":{"type":"Point","coordinates":[9.63895,54.546622]}},{"type":"Feature","properties":{"id":"wer-stoert","name":"Wer stört!!!","cat":"denkmal"},"geometry":{"type":"Point","coordinates":[9.92814,54.628197]}},{"type":"Feature","properties":{"id":"wikinger-museum-haithabu","name":"Wikinger-Museum Haithabu","cat":"wikinger","wikidata":"Q314723","wikipedia":"de:Wikinger-Museum Haithabu","website":"https://haithabu.de/"},"geometry":{"type":"Point","coordinates":[9.569437,54.497107]}},{"type":"Feature","properties":{"id":"wikingerhaeuser-haithabu","name":"Wikingerhäuser Haithabu","cat":"wikinger","wikidata":"Q314723","wikipedia":"de:Wikinger-Museum Haithabu","website":"https://haithabu.de"},"geometry":{"type":"Point","coordinates":[9.56758,54.49124]}},{"type":"Feature","properties":{"id":"windmuehle-lindaumuehlenholz","name":"Windmühle Lindaumühlenholz","cat":"technik","wikidata":"Q58395727"},"geometry":{"type":"Point","coordinates":[9.802857,54.592515]}},{"type":"Feature","properties":{"id":"ziegelei-borgwedel","name":"Ziegelei Borgwedel","cat":"denkmal","website":"https://www.borgwedel.de/verzeichnis/visitenkarte.php?mandat=186804"},"geometry":{"type":"Point","coordinates":[9.667118,54.504567]}},{"type":"Feature","properties":{"id":"ohne-titel","name":"ohne Titel","cat":"denkmal"},"geometry":{"type":"Point","coordinates":[9.539806,54.51124]}}]}